$GPGGA,140906.149,5024.5978,N,00921.8766,E,0,00,,372.6,M,48.0,M,,0000*7C
$GPGSA,A,1,,,,,,,,,,,,,,,*1E
$GPGSV,3,1,11,29,83,222,,25,65,099,,31,55,279,,02,28,049,*76
$GPGSV,3,2,11,12,23,102,,26,21,290,,14,17,253,,21,12,186,*7D
$GPGSV,3,3,11,05,05,088,,32,04,229,,23,03,341,*41
$GPRMC,140906.149,V,5024.5978,N,00921.8766,E,,,010518,,,N*78
$GPGGA,140907.129,5024.5978,N,00921.8766,E,0,00,,372.6,M,48.0,M,,0000*7B
$GPGSA,A,1,,,,,,,,,,,,,,,*1E
$GPRMC,140907.129,V,5024.5978,N,00921.8766,E,,,010518,,,N*7F
$GPGGA,140908.128,5024.5978,N,00921.8766,E,0,00,,372.6,M,48.0,M,,0000*75
$GPGSA,A,1,,,,,,,,,,,,,,,*1E
$GPRMC,140908.128,V,5024.5978,N,00921.8766,E,,,010518,,,N*71
$GPGGA,140909.134,5024.5978,N,00921.8766,E,0,00,,372.6,M,48.0,M,,0000*79
$GPGSA,A,1,,,,,,,,,,,,,,,*1E
$GPRMC,140909.134,V,5024.5978,N,00921.8766,E,,,010518,,,N*7D
$GPGGA,140910.134,5024.5978,N,00921.8766,E,0,00,,372.6,M,48.0,M,,0000*71
$GPGSA,A,1,,,,,,,,,,,,,,,*1E
$GPRMC,140910.134,V,5024.5978,N,00921.8766,E,,,010518,,,N*75
$GPGGA,140911.141,5024.5978,N,00921.8766,E,0,00,,372.6,M,48.0,M,,0000*72
$GPGSA,A,1,,,,,,,,,,,,,,,*1E
$GPGSV,3,1,11,29,83,222,,25,65,099,,31,55,279,,02,28,049,*76
$GPGSV,3,2,11,12,23,102,,26,21,290,,14,17,253,,21,12,186,*7D
$GPGSV,3,3,11,05,05,088,,32,04,229,,23,03,341,*41
$GPRMC,140911.141,V,5024.5978,N,00921.8766,E,,,010518,,,N*76
$GPGGA,140912.132,5024.5978,N,00921.8766,E,0,00,,372.6,M,48.0,M,,0000*75
$GPGSA,A,1,,,,,,,,,,,,,,,*1E
$GPRMC,140912.132,V,5024.5978,N,00921.8766,E,,,010518,,,N*71
$GPGGA,140913.134,5024.5978,N,00921.8766,E,0,00,,372.6,M,48.0,M,,0000*72
$GPGSA,A,1,,,,,,,,,,,,,,,*1E
$GPRMC,140913.134,V,5024.5978,N,00921.8766,E,,,010518,,,N*76
$GPGGA,140914.129,5024.5978,N,00921.8766,E,0,00,,372.6,M,48.0,M,,0000*79
$GPGSA,A,1,,,,,,,,,,,,,,,*1E
$GPRMC,140914.129,V,5024.5978,N,00921.8766,E,,,010518,,,N*7D
$GPGGA,140915.129,5024.5978,N,00921.8766,E,0,00,,372.6,M,48.0,M,,0000*78
$GPGSA,A,1,,,,,,,,,,,,,,,*1E
$GPRMC,140915.129,V,5024.5978,N,00921.8766,E,,,010518,,,N*7C
$GPGGA,140916.144,5024.5978,N,00921.8766,E,0,00,,372.6,M,48.0,M,,0000*70
$GPGSA,A,1,,,,,,,,,,,,,,,*1E
$GPGSV,3,1,11,29,83,222,,25,65,099,,31,55,279,,02,28,049,*76
$GPGSV,3,2,11,12,23,102,,26,21,290,,14,17,253,,21,12,186,*7D
$GPGSV,3,3,11,05,05,088,,32,04,229,,23,03,341,*41
$GPRMC,140916.144,V,5024.5978,N,00921.8766,E,,,010518,,,N*74
$GPGGA,140917.128,5024.5978,N,00921.8766,E,0,00,,372.6,M,48.0,M,,0000*7B
$GPGSA,A,1,,,,,,,,,,,,,,,*1E
$GPRMC,140917.128,V,5024.5978,N,00921.8766,E,,,010518,,,N*7F
$GPGGA,140918.132,5024.5978,N,00921.8766,E,0,00,,372.6,M,48.0,M,,0000*7F
$GPGSA,A,1,,,,,,,,,,,,,,,*1E
$GPRMC,140918.132,V,5024.5978,N,00921.8766,E,,,010518,,,N*7B
$GPGGA,140919.128,5024.5978,N,00921.8766,E,0,00,,372.6,M,48.0,M,,0000*75
$GPGSA,A,1,,,,,,,,,,,,,,,*1E
$GPRMC,140919.128,V,5024.5978,N,00921.8766,E,,,010518,,,N*71
$GPGGA,140920.131,5024.5978,N,00921.8766,E,0,00,,372.6,M,48.0,M,,0000*77
$GPGSA,A,1,,,,,,,,,,,,,,,*1E
$GPRMC,140920.131,V,5024.5978,N,00921.8766,E,,,010518,,,N*73
$GPGGA,140921.142,5024.5978,N,00921.8766,E,0,00,,372.6,M,48.0,M,,0000*72
$GPGSA,A,$GPGGA,151722.000,5024.6139,N,00921.8948,E,1,04,2.3,367.0,M,48.0,M,,0000*5C
$GPGSA,A,3,31,29,26,25,,,,,,,,,7.3,2.3,6.9*32
$GPRMC,151722.000,A,5024.6139,N,00921.8948,E,0.00,,010518,,,A*76
$GPGGA,151723.000,5024.6139,N,00921.8948,E,1,04,2.3,366.9,M,48.0,M,,0000*55
$GPGSA,A,3,31,29,26,25,,,,,,,,,7.3,2.3,6.9*32
$GPGSV,3,1,11,29,62,061,43,26,50,297,39,31,46,226,41,21,45,183,33*78
$GPGSV,3,2,11,25,34,124,32,16,21,299,25,05,18,060,43,20,05,146,08*7E
$GPGSV,3,3,11,23,05,315,14,02,03,039,20,09,02,350,19*43
$GPRMC,151723.000,A,5024.6139,N,00921.8948,E,0.00,,010518,,,A*77
$GPGGA,151724.000,5024.6137,N,00921.8948,E,1,06,1.3,368.0,M,48.0,M,,0000*5A
$GPGSA,A,3,05,31,29,26,25,21,,,,,,,3.1,1.3,2.8*34
$GPRMC,151724.000,A,5024.6137,N,00921.8948,E,0.00,,010518,,,A*7E
$GPGGA,151725.000,5024.6135,N,00921.8948,E,1,06,1.3,368.7,M,48.0,M,,0000*5E
$GPGSA,A,3,05,31,29,26,25,21,,,,,,,3.1,1.3,2.8*34
$GPRMC,151725.000,A,5024.6135,N,00921.8948,E,0.00,,010518,,,A*7D
$GPGGA,151726.002,5024.6134,N,00921.8949,E,1,06,1.3,369.1,M,48.0,M,,0000*58
$GPGSA,A,3,05,31,29,26,25,21,,,,,,,3.1,1.3,2.8*34
$GPRMC,151726.002,A,5024.6134,N,00921.8949,E,0.00,,010518,,,A*7C
$GPGGA,151727.000,5024.6133,N,00921.8949,E,1,06,1.3,369.5,M,48.0,M,,0000*58
$GPGSA,A,3,05,31,29,26,25,21,,,,,,,3.1,1.3,2.8*34
$GPRMC,151727.000,A,5024.6133,N,00921.8949,E,0.00,,010518,,,A*78
$GPGGA,151728.000,5024.6132,N,00921.8949,E,1,06,1.3,369.7,M,48.0,M,,0000*54
$GPGSA,A,3,05,31,29,26,25,21,,,,,,,3.1,1.3,2.8*34
$GPGSV,3,1,11,29,62,061,41,26,51,297,39,31,46,226,40,21,45,183,32*7B
$GPGSV,3,2,11,25,34,124,31,16,21,299,25,05,18,060,42,20,06,146,11*77
$GPGSV,3,3,11,23,05,315,,02,03,039,19,09,02,350,*44
$GPRMC,151728.000,A,5024.6132,N,00921.8949,E,0.00,,010518,,,A*76
$GPGGA,151729.000,5024.6132,N,00921.8950,E,1,06,1.3,369.9,M,48.0,M,,0000*53
$GPGSA,A,3,05,31,29,26,25,21,,,,,,,3.1,1.3,2.8*34
$GPRMC,151729.000,A,5024.6132,N,00921.8950,E,0.00,,010518,,,A*7F
$GPGGA,151730.000,5024.6131,N,00921.8950,E,1,06,1.3,370.1,M,48.0,M,,0000*58
$GPGSA,A,3,05,31,29,26,25,21,,,,,,,3.1,1.3,2.8*34
$GPRMC,151730.000,A,5024.6131,N,00921.8950,E,0.00,,010518,,,A*74
$GPGGA,151731.000,5024.6131,N,00921.8950,E,1,06,1.3,370.3,M,48.0,M,,0000*5B
$GPGSA,A,3,05,31,29,26,25,21,,,,,,,3.1,1.3,2.8*34
$GPRMC,151731.000,A,5024.6131,N,00921.8950,E,0.00,,010518,,,A*75
$GPGGA,151732.000,5024.6131,N,00921.8950,E,1,06,1.3,370.4,M,48.0,M,,0000*5F
$GPGSA,A,3,05,31,29,26,25,21,,,,,,,3.1,1.3,2.8*34
$GPRMC,151732.000,A,5024.6131,N,00921.8950,E,0.00,,010518,,,A*76
$GPGGA,151733.000,5024.6130,N,00921.8951,E,1,06,1.3,370.5,M,48.0,M,,0000*5F
$GPGSA,A,3,05,31,29,26,25,21,,,,,,,3.1,1.3,2.8*34
$GPGSV,3,1,11,29,62,061,40,26,51,297,38,31,46,226,40,21,45,183,31*78
$GPGSV,3,2,11,25,34,124,31,16,21,299,26,05,18,060,41,20,06,146,12*74
$GPGSV,3,3,11,23,05,315,,02,03,039,19,09,02,350,*44
$GPRMC,151733.000,A,5024.6130,N,00921.8951,E,0.00,,010518,,,A*77
$GPGGA,151734.000,5024.6130,N,00921.8951,E,1,06,1.3,370.6,M,48.0,M,,0000*5B
$GPGSA,A,3,05,31,29,26,25,21,,,,,,,3.1,1.3,2.8*34
$GPRMC,151734.000,A,5024.6130,N,00921.8951,E,0.00,,010518,,,A*70
$GPGGA,151735.000,5024.6130,N,00921.8951,E,1,06,1.3,370.7,M,48.0,M,,0000*5B
$GPGSA,A,3,05,31,29,26,25,21,,,,,,,3.1,1.3,2.8*34
$GPRMC,151735.000,A,5024.6130,N,00921.8951,E,0.00,,010518,,,A*71
$GPGGA,151736.000,5024.6130,N,00921.8951,E,1,06,1.3,370.8,M,48.0,M,,0000*57
$GPGSA,A,3,05,31,29,26,25,21,,,,,,,3.1,1.3,2.8*34
$GPRMC,151736.000,A,5024.6130,N,00921.8951,E,0.00,,010518,,,A*72
$GPGGA,151737.000,5024.6130,N,00921.8951,E,1,06,1.3,370.9,M,48.0,M,,0000*57
$GPGSA,A,3,05,31,29,26,25,21,,,,,,,3.1,1.3,2.8*34
$GPRMC,151737.000,A,5024.6130,N,00921.8951,E,0.00,,010518,,,A*73
$GPGGA,151738.000,5024.6129,N,00921.8951,E,1,06,1.3,370.9,M,48.0,M,,0000*50
$GPGSA,A,3,05,31,29,26,25,21,,,,,,,3.1,1.3,2.8*34
$GPGSV,3,1,11,29,62,061,40,26,51,297,38,31,46,226,39,21,45,183,31*76
$GPGSV,3,2,11,25,34,124,32,16,21,299,25,05,18,060,40,20,06,146,17*70
$GPGSV,3,3,11,23,05,315,,02,03,039,18,09,02,350,*45
$GPRMC,151738.000,A,5024.6129,N,00921.8951,E,0.00,,010518,,,A*74
$GPGGA,151739.000,5024.6129,N,00921.8951,E,1,06,1.3,371.0,M,48.0,M,,0000*59
$GPGSA,A,3,05,31,29,26,25,21,,,,,,,3.1,1.3,2.8*34
$GPRMC,151739.000,A,5024.6129,N,00921.8951,E,0.00,,010518,,,A*75
$GPGGA,151740.000,5024.6129,N,00921.8951,E,1,06,1.3,371.1,M,48.0,M,,0000*56
$GPGSA,A,3,05,31,29,26,25,21,,,,,,,3.1,1.3,2.8*34
$GPRMC,151740.000,A,5024.6129,N,00921.8951,E,0.00,,010518,,,A*7B
$GPGGA,151741.000,5024.6129,N,00921.8951,E,1,06,1.3,371.2,M,48.0,M,,0000*54
$GPGSA,A,3,05,31,29,26,25,21,,,,,,,3.1,1.3,2.8*34
$GPRMC,151741.000,A,5024.6129,N,00921.8951,E,0.00,,010518,,,A*7A
$GPGGA,151742.000,5024.6129,N,00921.8951,E,1,06,1.3,371.2,M,48.0,M,,0000*57
$GPGSA,A,3,05,31,29,26,25,21,,,,,,,3.1,1.3,2.8*34
$GPRMC,151742.000,A,5024.6129,N,00921.8951,E,0.00,,010518,,,A*79
$GPGGA,151743.000,5024.6129,N,00921.8951,E,1,06,1.3,371.3,M,48.0,M,,0000*57
$GPGSA,A,3,05,31,29,26,25,21,,,,,,,3.1,1.3,2.8*34
$GPGSV,3,1,11,29,62,061,40,26,51,297,38,31,46,226,39,21,45,183,32*75
$GPGSV,3,2,11,25,34,124,32,16,21,299,24,05,18,060,40,20,06,146,*77
$GPGSV,3,3,11,23,05,315,07,02,03,039,18,09,02,349,07*4D
$GPRMC,151743.000,A,5024.6129,N,00921.8951,E,0.00,,010518,,,A*78
$GPGGA,151744.000,5024.6130,N,00921.8951,E,1,06,1.3,371.4,M,48.0,M,,0000*5F
$GPGSA,A,3,05,31,29,26,25,21,,,,,,,3.1,1.3,2.8*34
$GPRMC,151744.000,A,5024.6130,N,00921.8951,E,0.00,,010518,,,A*77
$GPGGA,151745.000,5024.6130,N,00921.8951,E,1,06,1.3,371.5,M,48.0,M,,0000*5F
$GPGSA,A,3,05,31,29,26,25,21,,,,,,,3.1,1.3,2.8*34
$GPRMC,151745.000,A,5024.6130,N,00921.8951,E,0.00,,010518,,,A*76
$GPGGA,151746.000,5024.6130,N,00921.8951,E,1,06,1.3,371.5,M,48.0,M,,0000*5C
$GPGSA,A,3,05,31,29,26,25,21,,,,,,,3.1,1.3,2.8*34
$GPRMC,151746.000,A,5024.6130,N,00921.8951,E,0.00,,010518,,,A*75
$GPGGA,151747.000,5024.6130,N,00921.8951,E,1,06,1.3,371.6,M,48.0,M,,0000*5E
$GPGSA,A,3,05,31,29,26,25,21,,,,,,,3.1,1.3,2.8*34
$GPRMC,151747.000,A,5024.6130,N,00921.8951,E,0.00,,010518,,,A*74
$GPGGA,151748.000,5024.6130,N,00921.8951,E,1,06,1.3,371.6,M,48.0,M,,0000*51
$GPGSA,A,3,05,31,29,26,25,21,,,,,,,3.1,1.3,2.8*34
$GPGSV,3,1,11,29,62,061,40,26,51,297,38,31,46,226,39,21,45,183,32*75
$GPGSV,3,2,11,25,34,124,32,16,21,299,24,05,18,060,40,20,06,146,13*75
$GPGSV,3,3,11,23,05,315,11,02,03,039,17,09,02,349,*42
$GPRMC,151748.000,A,5024.6130,N,00921.8951,E,0.00,,010518,,,A*7B
$GPGGA,151749.000,5024.6131,N,00921.8951,E,1,06,1.3,371.7,M,48.0,M,,0000*50
$GPGSA,A,3,05,31,29,26,25,21,,,,,,,3.1,1.3,2.8*34
$GPRMC,151749.000,A,5024.6131,N,00921.8951,E,0.00,,010518,,,A*7B
$GPGGA,151750.000,5024.6131,N,00921.8950,E,1,06,1.3,371.7,M,48.0,M,,0000*59
$GPGSA,A,3,05,31,29,26,25,21,,,,,,,3.1,1.3,2.8*34
$GPRMC,151750.000,A,5024.6131,N,00921.8950,E,0.00,,010518,,,A*72
$GPGGA,151751.000,5024.6131,N,00921.8950,E,1,06,1.3,371.7,M,48.0,M,,0000*58
$GPGSA,A,3,05,31,29,26,25,21,,,,,,,3.1,1.3,2.8*34
$GPRMC,151751.000,A,5024.6131,N,00921.8950,E,0.00,,010518,,,A*73
$GPGGA,151752.000,5024.6131,N,00921.8950,E,1,06,1.3,371.8,M,48.0,M,,0000*54
$GPGSA,A,3,05,31,29,26,25,21,,,,,,,3.1,1.3,2.8*34
$GPRMC,151752.000,A,5024.6131,N,00921.8950,E,0.00,,010518,,,A*70
$GPGGA,151753.000,5024.6132,N,00921.8950,E,1,06,1.3,371.8,M,48.0,M,,0000*56
$GPGSA,A,3,05,31,29,26,25,21,,,,,,,3.1,1.3,2.8*34
$GPGSV,3,1,11,29,62,061,40,26,51,297,38,31,46,226,39,21,45,183,33*74
$GPGSV,3,2,11,25,34,124,32,16,21,299,24,05,18,060,41,20,06,146,07*71
$GPGSV,3,3,11,23,05,315,12,02,03,039,16,09,02,349,*40
$GPRMC,151753.000,A,5024.6132,N,00921.8950,E,0.00,,010518,,,A*72
$GPGGA,151754.000,5024.6132,N,00921.8950,E,1,06,1.3,371.8,M,48.0,M,,0000*51
$GPGSA,A,3,05,31,29,26,25,21,,,,,,,3.1,1.3,2.8*34
$GPRMC,151754.000,A,5024.6132,N,00921.8950,E,0.00,,010518,,,A*75
$GPGGA,151755.000,5024.6132,N,00921.8950,E,1,06,1.3,371.8,M,48.0,M,,0000*50
$GPGSA,A,3,05,31,29,26,25,21,,,,,,,3.1,1.3,2.8*34
$GPRMC,151755.000,A,5024.6132,N,00921.8950,E,0.00,,010518,,,A*74
$GPGGA,151756.000,5024.6133,N,00921.8949,E,1,06,1.3,371.8,M,48.0,M,,0000*5A
$GPGSA,A,3,05,31,29,26,25,21,,,,,,,3.1,1.3,2.8*34
$GPRMC,151756.000,A,5024.6133,N,00921.8949,E,0.00,,010518,,,A*7E
$GPGGA,151757.000,5024.6133,N,00921.8949,E,1,06,1.3,371.9,M,48.0,M,,0000*5A
$GPGSA,A,3,05,31,29,26,25,21,,,,,,,3.1,1.3,2.8*34
$GPRMC,151757.000,A,5024.6133,N,00921.8949,E,0.00,,010518,,,A*7F
$GPGGA,151758.000,5024.6133,N,00921.8949,E,1,06,1.3,371.9,M,48.0,M,,0000*55
$GPGSA,A,3,05,31,29,26,25,21,,,,,,,3.1,1.3,2.8*34
$GPGSV,3,1,11,29,62,061,40,26,51,297,38,31,46,226,40,21,45,183,32*7B
$GPGSV,3,2,11,25,34,124,32,16,21,299,24,05,18,060,42,20,06,146,*75
$GPGSV,3,3,11,23,05,315,,02,03,039,15,09,02,349,*40
$GPRMC,151758.000,A,5024.6133,N,00921.8949,E,0.00,,010518,,,A*70
$GPGGA,151759.000,5024.6133,N,00921.8949,E,1,06,1.3,371.9,M,48.0,M,,0000*54
$GPGSA,A,3,05,31,29,26,25,21,,,,,,,3.1,1.3,2.8*34
$GPRMC,151759.000,A,5024.6133,N,00921.8949,E,0.00,,010518,,,A*71
$GPGGA,151800.000,5024.6134,N,00921.8949,E,1,06,1.3,371.9,M,48.0,M,,0000*50
$GPGSA,A,3,05,31,29,26,25,21,,,,,,,3.1,1.3,2.8*34
$GPRMC,151800.000,A,5024.6134,N,00921.8949,E,0.00,,010518,,,A*75
$GPGGA,151801.000,5024.6134,N,00921.8949,E,1,06,1.3,371.9,M,48.0,M,,0000*51
$GPGSA,A,3,05,31,29,26,25,21,,,,,,,3.1,1.3,2.8*34
$GPRMC,151801.000,A,5024.6134,N,00921.8949,E,0.00,,010518,,,A*74
$GPGGA,151802.000,5024.6134,N,00921.8949,E,1,06,1.3,372.0,M,48.0,M,,0000*58
$GPGSA,A,3,05,31,29,26,25,21,,,,,,,3.1,1.3,2.8*34
$GPRMC,151802.000,A,5024.6134,N,00921.8949,E,0.00,,010518,,,A*77
$GPGGA,151803.000,5024.6134,N,00921.8949,E,1,06,1.3,372.0,M,48.0,M,,0000*59
$GPGSA,A,3,05,31,29,26,25,21,,,,,,,3.1,1.3,2.8*34
$GPGSV,3,1,11,29,62,061,40,26,51,297,38,31,46,226,40,21,45,183,32*7B
$GPGSV,3,2,11,25,34,124,33,16,21,299,24,05,18,060,41,20,06,146,*77
$GPGSV,3,3,11,23,05,315,07,02,03,039,14,09,02,349,07*41
$GPRMC,151803.000,A,5024.6134,N,00921.8949,E,0.00,,010518,,,A*76
$GPGGA,151804.000,5024.6134,N,00921.8949,E,1,06,1.3,372.0,M,48.0,M,,0000*5E
$GPGSA,A,3,05,31,29,26,25,21,,,,,,,3.1,1.3,2.8*34
$GPRMC,151804.000,A,5024.6134,N,00921.8949,E,0.00,,010518,,,A*71
$GPGGA,151805.000,5024.6134,N,00921.8949,E,1,06,1.3,372.0,M,48.0,M,,0000*5F
$GPGSA,A,3,05,31,29,26,25,21,,,,,,,3.1,1.3,2.8*34
$GPRMC,151805.000,A,5024.6134,N,00921.8949,E,0.00,,010518,,,A*70
$GPGGA,151806.000,5024.6134,N,00921.8949,E,1,06,1.3,372.0,M,48.0,M,,0000*5C
$GPGSA,A,3,05,31,29,26,25,21,,,,,,,3.1,1.3,2.8*34
$GPRMC,151806.000,A,5024.6134,N,00921.8949,E,0.00,,010518,,,A*73
$GPGGA,151807.000,5024.6134,N,00921.8949,E,1,06,1.3,372.1,M,48.0,M,,0000*5C
$GPGSA,A,3,05,31,29,26,25,21,,,,,,,3.1,1.3,2.8*34
$GPRMC,151807.000,A,5024.6134,N,00921.8949,E,0.00,,010518,,,A*72
$GPGGA,151808.000,5024.6134,N,00921.8949,E,1,06,1.3,372.1,M,48.0,M,,0000*53
$GPGSA,A,3,05,31,29,26,25,21,,,,,,,3.1,1.3,2.8*34
$GPGSV,3,1,11,29,62,061,39,26,51,297,38,31,46,226,40,21,45,183,31*76
$GPGSV,3,2,11,25,34,124,33,16,21,299,24,05,18,060,42,20,06,146,11*74
$GPGSV,3,3,11,23,05,315,12,02,03,039,13,09,02,349,*45
$GPRMC,151808.000,A,5024.6134,N,00921.8949,E,0.00,,010518,,,A*7D
$GPGGA,151809.000,5024.6135,N,00921.8949,E,1,06,1.3,372.1,M,48.0,M,,0000*53
$GPGSA,A,3,05,31,29,26,25,21,,,,,,,3.1,1.3,2.8*34
$GPRMC,151809.000,A,5024.6135,N,00921.8949,E,0.00,,010518,,,A*7D
$GPGGA,151810.000,5024.6135,N,00921.8949,E,1,06,1.3,372.1,M,48.0,M,,0000*5B
$GPGSA,A,3,05,31,29,26,25,21,,,,,,,3.1,1.3,2.8*34
$GPRMC,151810.000,A,5024.6135,N,00921.8949,E,0.00,,010518,,,A*75
$GPGGA,151811.000,5024.6135,N,00921.8949,E,1,06,1.3,372.1,M,48.0,M,,0000*5A
$GPGSA,A,3,05,31,29,26,25,21,,,,,,,3.1,1.3,2.8*34
$GPRMC,151811.000,A,5024.6135,N,00921.8949,E,0.00,,010518,,,A*74
$GPGGA,151812.000,5024.6135,N,00921.8949,E,1,06,1.3,372.1,M,48.0,M,,0000*59
$GPGSA,A,3,05,31,29,26,25,21,,,,,,,3.1,1.3,2.8*34
$GPRMC,151812.000,A,5024.6135,N,00921.8949,E,0.00,,010518,,,A*77
$GPGGA,151813.000,5024.6135,N,00921.8949,E,1,06,1.3,372.2,M,48.0,M,,0000*5B
$GPGSA,A,3,05,31,29,26,25,21,,,,,,,3.1,1.3,2.8*34
$GPGSV,3,1,11,29,62,061,39,26,51,297,38,31,46,226,39,21,45,183,31*78
$GPGSV,3,2,11,25,34,124,33,16,21,299,25,05,18,060,42,20,06,146,11*75
$GPGSV,3,3,11,23,05,315,13,02,03,039,13,09,02,349,*44
$GPRMC,151813.000,A,5024.6135,N,00921.8949,E,0.00,,010518,,,A*76
$GPGGA,151814.000,5024.6135,N,00921.8949,E,1,06,1.3,372.2,M,48.0,M,,0000*5C
$GPGSA,A,3,05,31,29,26,25,21,,,,,,,3.1,1.3,2.8*34
$GPRMC,151814.000,A,5024.6135,N,00921.8949,E,0.00,,010518,,,A*71
$GPGGA,151815.000,5024.6135,N,00921.8949,E,1,06,1.3,372.2,M,48.0,M,,0000*5D
$GPGSA,A,3,05,31,29,26,25,21,,,,,,,3.1,1.3,2.8*34
$GPRMC,151815.000,A,5024.6135,N,00921.8949,E,0.00,,010518,,,A*70
$GPGGA,151816.000,5024.6135,N,00921.8949,E,1,06,1.3,372.2,M,48.0,M,,0000*5E
$GPGSA,A,3,05,31,29,26,25,21,,,,,,,3.1,1.3,2.8*34
$GPRMC,151816.000,A,5024.6135,N,00921.8949,E,0.00,,010518,,,A*73
$GPGGA,151817.000,5024.6135,N,00921.8950,E,1,06,1.3,372.3,M,48.0,M,,0000*56
$GPGSA,A,3,05,31,29,26,25,21,,,,,,,3.1,1.3,2.8*34
$GPRMC,151817.000,A,5024.6135,N,00921.8950,E,0.00,,010518,,,A*7A
$GPGGA,151818.000,5024.6135,N,00921.8950,E,1,06,1.3,372.3,M,48.0,M,,0000*59
$GPGSA,A,3,05,31,29,26,25,21,,,,,,,3.1,1.3,2.8*34
$GPGSV,3,1,11,29,62,061,39,26,51,297,39,31,46,226,39,21,45,183,30*78
$GPGSV,3,2,11,25,34,124,32,16,21,299,25,05,18,060,42,20,06,146,15*70
$GPGSV,3,3,11,23,05,315,12,02,03,039,12,09,02,349,13*46
$GPRMC,151818.000,A,5024.6135,N,00921.8950,E,0.00,,010518,,,A*75
$GPGGA,151819.000,5024.6135,N,00921.8950,E,1,06,1.3,372.3,M,48.0,M,,0000*58
$GPGSA,A,3,05,31,29,26,25,21,,,,,,,3.1,1.3,2.8*34
$GPRMC,151819.000,A,5024.6135,N,00921.8950,E,0.00,,010518,,,A*74
$GPGGA,151820.000,5024.6135,N,00921.8950,E,1,06,1.3,372.3,M,48.0,M,,0000*52
$GPGSA,A,3,05,31,29,26,25,21,,,,,,,3.1,1.3,2.8*34
$GPRMC,151820.000,A,5024.6135,N,00921.8950,E,0.00,,010518,,,A*7E
$GPGGA,151821.000,5024.6136,N,00921.8950,E,1,06,1.3,372.4,M,48.0,M,,0000*57
$GPGSA,A,3,05,31,29,26,25,21,,,,,,,3.1,1.3,2.8*34
$GPRMC,151821.000,A,5024.6136,N,00921.8950,E,0.00,,010518,,,A*7C
$GPGGA,151822.000,5024.6136,N,00921.8950,E,1,06,1.3,372.4,M,48.0,M,,0000*54
$GPGSA,A,3,05,31,29,26,25,21,,,,,,,3.1,1.3,2.8*34
$GPRMC,151822.000,A,5024.6136,N,00921.8950,E,0.00,,010518,,,A*7F
$GPGGA,151823.000,5024.6136,N,00921.8950,E,1,06,1.3,372.5,M,48.0,M,,0000*54
$GPGSA,A,3,05,31,29,26,25,21,,,,,,,3.1,1.3,2.8*34
$GPGSV,3,1,11,29,62,061,39,26,51,297,39,31,46,226,39,21,45,183,30*78
$GPGSV,3,2,11,25,34,124,32,16,21,299,25,05,18,060,43,20,06,146,07*72
$GPGSV,3,3,11,23,05,315,,02,03,039,12,09,02,349,09*4E
$GPRMC,151823.000,A,5024.6136,N,00921.8950,E,0.00,,010518,,,A*7E
$GPGGA,151824.000,5024.6136,N,00921.8950,E,1,06,1.3,372.5,M,48.0,M,,0000*53
$GPGSA,A,3,05,31,29,26,25,21,,,,,,,3.1,1.3,2.8*34
$GPRMC,151824.000,A,5024.6136,N,00921.8950,E,0.00,,010518,,,A*79
$GPGGA,151825.000,5024.6136,N,00921.8951,E,1,06,1.3,372.6,M,48.0,M,,0000*50
$GPGSA,A,3,05,31,29,26,25,21,,,,,,,3.1,1.3,2.8*34
$GPRMC,151825.000,A,5024.6136,N,00921.8951,E,0.00,,010518,,,A*79
$GPGGA,151826.000,5024.6136,N,00921.8951,E,1,06,1.3,372.6,M,48.0,M,,0000*53
$GPGSA,A,3,05,31,29,26,25,21,,,,,,,3.1,1.3,2.8*34
$GPRMC,151826.000,A,5024.6136,N,00921.8951,E,0.00,,010518,,,A*7A
$GPGGA,151827.000,5024.6136,N,00921.8951,E,1,06,1.3,372.7,M,48.0,M,,0000*53
$GPGSA,A,3,05,31,29,26,25,21,,,,,,,3.1,1.3,2.8*34
$GPRMC,151827.000,A,5024.6136,N,00921.8951,E,0.00,,010518,,,A*7B
$GPGGA,151828.000,5024.6136,N,00921.8951,E,1,06,1.3,372.7,M,48.0,M,,0000*5C
$GPGSA,A,3,05,31,29,26,25,21,,,,,,,3.1,1.3,2.8*34
$GPGSV,3,1,11,29,62,061,39,26,51,297,39,31,46,226,38,21,45,183,31*78
$GPGSV,3,2,11,25,34,124,31,16,21,299,25,05,18,060,42,20,06,146,10*76
$GPGSV,3,3,11,23,05,315,10,02,03,039,12,09,02,349,*46
$GPRMC,151828.000,A,5024.6136,N,00921.8951,E,0.00,,010518,,,A*74
$GPGGA,151829.000,5024.6136,N,00921.8951,E,1,06,1.3,372.8,M,48.0,M,,0000*52
$GPGSA,A,3,05,31,29,26,25,21,,,,,,,3.1,1.3,2.8*34
$GPRMC,151829.000,A,5024.6136,N,00921.8951,E,0.00,,010518,,,A*75
$GPGGA,151830.000,5024.6136,N,00921.8952,E,1,06,1.3,372.8,M,48.0,M,,0000*59
$GPGSA,A,3,05,31,29,26,25,21,,,,,,,3.1,1.3,2.8*34
$GPRMC,151830.000,A,5024.6136,N,00921.8952,E,0.00,,010518,,,A*7E
$GPGGA,151831.000,5024.6136,N,00921.8952,E,1,06,1.3,372.9,M,48.0,M,,0000*59
$GPGSA,A,3,05,31,29,26,25,21,,,,,,,3.1,1.3,2.8*34
$GPRMC,151831.000,A,5024.6136,N,00921.8952,E,0.00,,010518,,,A*7F
$GPGGA,151832.000,5024.6136,N,00921.8952,E,1,06,1.3,373.0,M,48.0,M,,0000*52
$GPGSA,A,3,05,31,29,26,25,21,,,,,,,3.1,1.3,2.8*34
$GPRMC,151832.000,A,5024.6136,N,00921.8952,E,0.00,,010518,,,A*7C
$GPGGA,151833.000,5024.6136,N,00921.8952,E,1,06,1.3,373.0,M,48.0,M,,0000*53
$GPGSA,A,3,05,31,29,26,25,21,,,,,,,3.1,1.3,2.8*34
$GPGSV,3,1,11,29,62,061,39,26,51,297,39,31,46,226,38,21,45,183,31*78
$GPGSV,3,2,11,25,34,124,31,16,21,299,27,05,18,060,42,20,06,146,*75
$GPGSV,3,3,11,23,05,315,09,02,03,039,13,09,02,349,*4F
$GPRMC,151833.000,A,5024.6136,N,00921.8952,E,0.00,,010518,,,A*7D
$GPGGA,151834.000,5024.6137,N,00921.8952,E,1,06,1.3,373.1,M,48.0,M,,0000*54
$GPGSA,A,3,05,31,29,26,25,21,,,,,,,3.1,1.3,2.8*34
$GPRMC,151834.000,A,5024.6137,N,00921.8952,E,0.00,,010518,,,A*7B
$GPGGA,151835.000,5024.6137,N,00921.8953,E,1,06,1.3,373.1,M,48.0,M,,0000*54
$GPGSA,A,3,05,31,29,26,25,21,,,,,,,3.1,1.3,2.8*34
$GPRMC,151835.000,A,5024.6137,N,00921.8953,E,0.00,,010518,,,A*7B
$GPGGA,151836.000,5024.6137,N,00921.8953,E,1,06,1.3,373.2,M,48.0,M,,0000*54
$GPGSA,A,3,05,31,29,26,25,21,,,,,,,3.1,1.3,2.8*34
$GPRMC,151836.000,A,5024.6137,N,00921.8953,E,0.00,,010518,,,A*78
$GPGGA,151837.000,5024.6137,N,00921.8953,E,1,06,1.3,373.2,M,48.0,M,,0000*55
$GPGSA,A,3,05,31,29,26,25,21,,,,,,,3.1,1.3,2.8*34
$GPRMC,151837.000,A,5024.6137,N,00921.8953,E,0.00,,010518,,,A*79
$GPGGA,151838.000,5024.6137,N,00921.8954,E,1,06,1.3,373.3,M,48.0,M,,0000*5C
$GPGSA,A,3,05,31,29,26,25,21,,,,,,,3.1,1.3,2.8*34
$GPGSV,3,1,11,29,62,061,38,26,51,297,39,31,46,226,38,21,45,183,30*78
$GPGSV,3,2,11,25,34,124,30,16,21,299,27,05,18,060,42,20,06,146,11*74
$GPGSV,3,3,11,23,05,315,,02,03,039,12,09,02,349,12*44
$GPRMC,151838.000,A,5024.6137,N,00921.8954,E,0.00,,010518,,,A*71
$GPGGA,151839.000,5024.6137,N,00921.8954,E,1,06,1.3,373.3,M,48.0,M,,0000*5D
$GPGSA,A,3,05,31,29,26,25,21,,,,,,,3.1,1.3,2.8*34
$GPRMC,151839.000,A,5024.6137,N,00921.8954,E,0.00,,010518,,,A*70
$GPGGA,151840.000,5024.6137,N,00921.8954,E,1,06,1.3,373.4,M,48.0,M,,0000*54
$GPGSA,A,3,05,31,29,26,25,21,,,,,,,3.1,1.3,2.8*34
$GPRMC,151840.000,A,5024.6137,N,00921.8954,E,0.00,,010518,,,A*7E
$GPGGA,151841.000,5024.6137,N,00921.8954,E,1,06,1.3,373.5,M,48.0,M,,0000*54
$GPGSA,A,3,05,31,29,26,25,21,,,,,,,3.1,1.3,2.8*34
$GPRMC,151841.000,A,5024.6137,N,00921.8954,E,0.00,,010518,,,A*7F
$GPGGA,151842.000,5024.6137,N,00921.8955,E,1,06,1.3,373.5,M,48.0,M,,0000*56
$GPGSA,A,3,05,31,29,26,25,21,,,,,,,3.1,1.3,2.8*34
$GPRMC,151842.000,A,5024.6137,N,00921.8955,E,0.00,,010518,,,A*7D
$GPGGA,151843.000,5024.6137,N,00921.8955,E,1,06,1.3,373.6,M,48.0,M,,0000*54
$GPGSA,A,3,05,31,29,26,25,21,,,,,,,3.1,1.3,2.8*34
$GPGSV,3,1,11,29,62,061,39,26,51,297,39,31,46,225,38,21,45,183,26*7D
$GPGSV,3,2,11,25,34,124,29,16,22,299,27,05,18,059,42,20,06,145,*76
$GPGSV,3,3,11,23,05,315,11,02,03,039,13,09,02,349,09*4F
$GPRMC,151843.000,A,5024.6137,N,00921.8955,E,0.00,,010518,,,A*7C
$GPGGA,151844.000,5024.6137,N,00921.8958,E,1,06,1.3,373.7,M,48.0,M,,0000*5F
$GPGSA,A,3,05,31,29,26,25,21,,,,,,,3.1,1.3,2.8*34
$GPRMC,151844.000,A,5024.6137,N,00921.8958,E,0.00,,010518,,,A*76
$GPGGA,151845.000,5024.6137,N,00921.8966,E,1,06,1.3,373.8,M,48.0,M,,0000*5C
$GPGSA,A,3,05,31,29,26,25,21,,,,,,,3.1,1.3,2.8*34
$GPRMC,151845.000,A,5024.6137,N,00921.8966,E,1.80,92.88,010518,,,A*56
$GPGGA,151846.000,5024.6135,N,00921.8983,E,1,05,1.5,374.3,M,48.0,M,,0000*5F
$GPGSA,A,3,05,31,29,26,25,,,,,,,,3.2,1.5,2.8*32
$GPRMC,151846.000,A,5024.6135,N,00921.8983,E,3.65,100.13,010518,,,A*6D
$GPGGA,151847.000,5024.6132,N,00921.9009,E,1,05,1.5,374.5,M,48.0,M,,0000*55
$GPGSA,A,3,05,31,29,26,25,,,,,,,,3.2,1.5,2.8*32
$GPRMC,151847.000,A,5024.6132,N,00921.9009,E,5.69,97.55,010518,,,A*56
$GPGGA,151848.000,5024.6129,N,00921.9042,E,1,05,1.5,374.6,M,48.0,M,,0000*5C
$GPGSA,A,3,05,31,29,26,25,,,,,,,,3.2,1.5,2.8*32
$GPGSV,3,1,11,29,62,061,39,26,51,297,39,31,46,225,28,21,45,183,21*7B
$GPGSV,3,2,11,25,34,124,36,16,22,299,28,05,18,059,34,20,06,145,10*77
$GPGSV,3,3,11,23,05,315,11,02,03,039,12,09,02,349,15*43
$GPRMC,151848.000,A,5024.6129,N,00921.9042,E,7.52,100.18,010518,,,A*60
$GPGGA,151849.000,5024.6123,N,00921.9082,E,1,06,1.3,374.6,M,48.0,M,,0000*5E
$GPGSA,A,3,05,31,29,26,25,21,,,,,,,3.1,1.3,2.8*34
$GPRMC,151849.000,A,5024.6123,N,00921.9082,E,9.09,101.51,010518,,,A*6B
$GPGGA,151850.000,5024.6116,N,00921.9129,E,1,06,1.3,374.6,M,48.0,M,,0000*50
$GPGSA,A,3,05,31,29,26,25,21,,,,,,,3.1,1.3,2.8*34
$GPRMC,151850.000,A,5024.6116,N,00921.9129,E,10.85,102.19,010518,,,A*56
$GPGGA,151851.000,5024.6108,N,00921.9184,E,1,06,1.3,374.6,M,48.0,M,,0000*59
$GPGSA,A,3,05,31,29,26,25,21,,,,,,,3.1,1.3,2.8*34
$GPRMC,151851.000,A,5024.6108,N,00921.9184,E,12.57,102.15,010518,,,A*5E
$GPGGA,151852.000,5024.6098,N,00921.9243,E,1,06,1.3,374.4,M,48.0,M,,0000*58
$GPGSA,A,3,05,31,29,26,25,21,,,,,,,3.1,1.3,2.8*34
$GPRMC,151852.000,A,5024.6098,N,00921.9243,E,13.90,105.44,010518,,,A*54
$GPGGA,151853.000,5024.6087,N,00921.9306,E,1,06,1.3,374.3,M,48.0,M,,0000*50
$GPGSA,A,3,05,31,29,26,25,21,,,,,,,3.1,1.3,2.8*34
$GPGSV,3,1,11,29,62,061,39,26,51,297,38,31,46,225,39,21,45,183,32*78
$GPGSV,3,2,11,25,34,124,32,16,22,299,28,05,18,059,42,20,06,145,09*7A
$GPGSV,3,3,11,23,05,315,15,02,03,039,,09,02,349,07*47
$GPRMC,151853.000,A,5024.6087,N,00921.9306,E,14.86,107.32,010518,,,A*58
$GPGGA,151854.000,5024.6072,N,00921.9371,E,1,06,1.3,374.3,M,48.0,M,,0000*5D
$GPGSA,A,3,05,31,29,26,25,21,,,,,,,3.1,1.3,2.8*34
$GPRMC,151854.000,A,5024.6072,N,00921.9371,E,15.59,112.18,010518,,,A*5A
$GPGGA,151855.000,5024.6052,N,00921.9437,E,1,06,1.3,374.3,M,48.0,M,,0000*5B
$GPGSA,A,3,05,31,29,26,25,21,,,,,,,3.1,1.3,2.8*34
$GPRMC,151855.000,A,5024.6052,N,00921.9437,E,16.21,116.66,010518,,,A*5D
$GPGGA,151856.000,5024.6028,N,00921.9502,E,1,06,1.3,374.3,M,48.0,M,,0000*52
$GPGSA,A,3,05,31,29,26,25,21,,,,,,,3.1,1.3,2.8*34
$GPRMC,151856.000,A,5024.6028,N,00921.9502,E,16.86,122.02,010518,,,A*5C
$GPGGA,151857.000,5024.5998,N,00921.9565,E,1,06,1.3,374.2,M,48.0,M,,0000*52
$GPGSA,A,3,05,31,29,26,25,21,,,,,,,3.1,1.3,2.8*34
$GPRMC,151857.000,A,5024.5998,N,00921.9565,E,17.46,128.16,010518,,,A*5F
$GPGGA,151858.000,5024.5965,N,00921.9625,E,1,06,1.3,374.1,M,48.0,M,,0000*5B
$GPGSA,A,3,05,31,29,26,25,21,,,,,,,3.1,1.3,2.8*34
$GPGSV,3,1,11,29,62,061,40,26,51,297,38,31,46,225,39,21,45,183,36*72
$GPGSV,3,2,11,25,34,124,33,16,22,299,28,05,18,059,28,20,06,145,23*7F
$GPGSV,3,3,11,23,05,315,13,02,03,039,07,09,02,349,*41
$GPRMC,151858.000,A,5024.5965,N,00921.9625,E,17.84,133.40,010518,,,A*52
$GPGGA,151859.000,5024.5928,N,00921.9680,E,1,06,1.3,374.0,M,48.0,M,,0000*5D
$GPGSA,A,3,05,31,29,26,25,21,,,,,,,3.1,1.3,2.8*34
$GPRMC,151859.000,A,5024.5928,N,00921.9680,E,18.13,139.00,010518,,,A*5A
$GPGGA,151900.000,5024.5887,N,00921.9729,E,1,06,1.3,373.9,M,48.0,M,,0000*58
$GPGSA,A,3,05,31,29,26,25,21,,,,,,,3.1,1.3,2.8*34
$GPRMC,151900.000,A,5024.5887,N,00921.9729,E,18.43,145.18,010518,,,A*56
$GPGGA,151901.000,5024.5841,N,00921.9772,E,1,06,1.3,373.9,M,48.0,M,,0000*5D
$GPGSA,A,3,05,31,29,26,25,21,,,,,,,3.1,1.3,2.8*34
$GPRMC,151901.000,A,5024.5841,N,00921.9772,E,18.87,151.77,010518,,,A*57
$GPGGA,151902.000,5024.5793,N,00921.9809,E,1,06,1.3,374.0,M,48.0,M,,0000*53
$GPGSA,A,3,05,31,29,26,25,21,,,,,,,3.1,1.3,2.8*34
$GPRMC,151902.000,A,5024.5793,N,00921.9809,E,19.03,156.18,010518,,,A*54
$GPGGA,151903.000,5024.5742,N,00921.9840,E,1,06,1.3,373.9,M,48.0,M,,0000*5D
$GPGSA,A,3,05,31,29,26,25,21,,,,,,,3.1,1.3,2.8*34
$GPGSV,3,1,11,29,62,061,43,26,51,297,40,31,46,225,33,21,45,183,39*7B
$GPGSV,3,2,11,25,34,124,35,16,22,299,29,05,18,059,34,20,06,145,10*75
$GPGSV,3,3,11,23,05,315,25,02,03,039,,09,02,349,*43
$GPRMC,151903.000,A,5024.5742,N,00921.9840,E,19.30,160.13,010518,,,A*5A
$GPGGA,151904.000,5024.5690,N,00921.9869,E,1,06,1.3,373.8,M,48.0,M,,0000*5E
$GPGSA,A,3,05,31,29,26,25,21,,,,,,,3.1,1.3,2.8*34
$GPRMC,151904.000,A,5024.5690,N,00921.9869,E,19.90,160.77,010518,,,A*50
$GPGGA,151905.000,5024.5637,N,00921.9897,E,1,06,1.3,373.6,M,48.0,M,,0000*5D
$GPGSA,A,3,05,31,29,26,25,21,,,,,,,3.1,1.3,2.8*34
$GPRMC,151905.000,A,5024.5637,N,00921.9897,E,20.13,160.45,010518,,,A*5D
$GPGGA,151906.000,5024.5583,N,00921.9927,E,1,06,1.3,373.5,M,48.0,M,,0000*5B
$GPGSA,A,3,05,31,29,26,25,21,,,,,,,3.1,1.3,2.8*34
$GPRMC,151906.000,A,5024.5583,N,00921.9927,E,20.45,160.37,010518,,,A*5E
$GPGGA,151907.000,5024.5528,N,00921.9957,E,1,05,1.5,373.4,M,48.0,M,,0000*58
$GPGSA,A,3,05,29,26,25,21,,,,,,,,3.3,1.5,3.0*3B
$GPRMC,151907.000,A,5024.5528,N,00921.9957,E,20.68,160.51,010518,,,A*56
$GPGGA,151908.000,5024.5474,N,00921.9986,E,1,06,1.3,373.5,M,48.0,M,,0000*57
$GPGSA,A,3,05,31,29,26,25,21,,,,,,,3.1,1.3,2.8*34
$GPGSV,3,1,11,29,62,061,43,26,51,297,40,31,46,225,29,21,45,183,38*71
$GPGSV,3,2,11,25,34,124,30,16,22,299,29,05,18,059,36,20,06,145,*73
$GPGSV,3,3,11,23,05,315,32,02,03,039,,09,02,349,09*4C
$GPRMC,151908.000,A,5024.5474,N,00921.9986,E,20.51,161.58,010518,,,A*5F
$GPGGA,151909.000,5024.5421,N,00922.0010,E,1,06,1.3,373.6,M,48.0,M,,0000*59
$GPGSA,A,3,05,31,29,26,25,21,,,,,,,3.1,1.3,2.8*34
$GPRMC,151909.000,A,5024.5421,N,00922.0010,E,19.66,164.38,010518,,,A*5F
$GPGGA,151910.000,5024.5370,N,00922.0026,E,1,06,1.3,373.6,M,48.0,M,,0000*57
$GPGSA,A,3,05,31,29,26,25,21,,,,,,,3.1,1.3,2.8*34
$GPRMC,151910.000,A,5024.5370,N,00922.0026,E,18.72,172.27,010518,,,A*5C
$GPGGA,151911.000,5024.5319,N,00922.0028,E,1,06,1.3,373.6,M,48.0,M,,0000*57
$GPGSA,A,3,05,31,29,26,25,21,,,,,,,3.1,1.3,2.8*34
$GPRMC,151911.000,A,5024.5319,N,00922.0028,E,18.13,181.24,010518,,,A*54
$GPGGA,151912.000,5024.5270,N,00922.0019,E,1,06,1.3,373.7,M,48.0,M,,0000*59
$GPGSA,A,3,05,31,29,26,25,21,,,,,,,3.1,1.3,2.8*34
$GPRMC,151912.000,A,5024.5270,N,00922.0019,E,17.66,189.76,010518,,,A*59
$GPGGA,151913.000,5024.5222,N,00922.0003,E,1,06,1.3,373.8,M,48.0,M,,0000*5B
$GPGSA,A,3,05,31,29,26,25,21,,,,,,,3.1,1.3,2.8*34
$GPGSV,3,1,11,29,62,061,39,26,51,297,40,21,46,183,38,31,45,225,42*71
$GPGSV,3,2,11,25,34,124,39,16,22,299,34,05,18,059,32,20,06,145,*72
$GPGSV,3,3,11,23,05,314,21,02,03,039,07,09,02,349,*41
$GPRMC,151913.000,A,5024.5222,N,00922.0003,E,17.41,193.01,010518,,,A*5A
$GPGGA,151914.000,5024.5177,N,00921.9986,E,1,06,1.3,373.9,M,48.0,M,,0000*50
$GPGSA,A,3,05,31,29,26,25,21,,,,,,,3.1,1.3,2.8*34
$GPRMC,151914.000,A,5024.5177,N,00921.9986,E,16.79,194.68,010518,,,A*52
$GPGGA,151915.000,5024.5132,N,00921.9967,E,1,06,1.3,374.0,M,48.0,M,,0000*51
$GPGSA,A,3,05,31,29,26,25,21,,,,,,,3.1,1.3,2.8*34
$GPRMC,151915.000,A,5024.5132,N,00921.9967,E,16.31,195.02,010518,,,A*5C
$GPGGA,151916.000,5024.5088,N,00921.9948,E,1,06,1.3,374.1,M,48.0,M,,0000*5E
$GPGSA,A,3,05,31,29,26,25,21,,,,,,,3.1,1.3,2.8*34
$GPRMC,151916.000,A,5024.5088,N,00921.9948,E,16.30,194.63,010518,,,A*55
$GPGGA,151917.000,5024.5043,N,00921.9930,E,1,06,1.3,374.1,M,48.0,M,,0000*57
$GPGSA,A,3,05,31,29,26,25,21,,,,,,,3.1,1.3,2.8*34
$GPRMC,151917.000,A,5024.5043,N,00921.9930,E,16.40,194.71,010518,,,A*58
$GPGGA,151918.000,5024.4998,N,00921.9911,E,1,06,1.3,374.2,M,48.0,M,,0000*56
$GPGSA,A,3,05,31,29,26,25,21,,,,,,,3.1,1.3,2.8*34
$GPGSV,3,1,11,29,62,061,39,26,51,297,34,21,46,183,38,31,45,225,40*70
$GPGSV,3,2,11,25,34,124,41,16,22,299,30,05,18,059,34,20,06,145,*7F
$GPGSV,3,3,11,23,05,314,28,02,03,039,,09,02,349,10*4E
$GPRMC,151918.000,A,5024.4998,N,00921.9911,E,16.63,194.67,010518,,,A*5C
$GPGGA,151919.000,5024.4952,N,00921.9892,E,1,06,1.3,374.1,M,48.0,M,,0000*58
$GPGSA,A,3,05,31,29,26,25,21,,,,,,,3.1,1.3,2.8*34
$GPRMC,151919.000,A,5024.4952,N,00921.9892,E,16.83,195.20,010518,,,A*5D
$GPGGA,151920.000,5024.4906,N,00921.9871,E,1,06,1.3,374.2,M,48.0,M,,0000*5D
$GPGSA,A,3,05,31,29,26,25,21,,,,,,,3.1,1.3,2.8*34
$GPRMC,151920.000,A,5024.4906,N,00921.9871,E,17.11,195.92,010518,,,A*58
$GPGGA,151921.000,5024.4859,N,00921.9850,E,1,06,1.3,374.0,M,48.0,M,,0000*56
$GPGSA,A,3,05,31,29,26,25,21,,,,,,,3.1,1.3,2.8*34
$GPRMC,151921.000,A,5024.4859,N,00921.9850,E,17.49,196.23,010518,,,A*55
$GPGGA,151922.000,5024.4810,N,00921.9828,E,1,06,1.3,374.1,M,48.0,M,,0000*56
$GPGSA,A,3,05,31,29,26,25,21,,,,,,,3.1,1.3,2.8*34
$GPRMC,151922.000,A,5024.4810,N,00921.9828,E,17.86,195.98,010518,,,A*54
$GPGGA,151923.000,5024.4762,N,00921.9805,E,1,06,1.3,373.6,M,48.0,M,,0000*52
$GPGSA,A,3,05,31,29,26,25,21,,,,,,,3.1,1.3,2.8*34
$GPGSV,3,1,11,29,62,061,39,26,51,297,35,21,46,183,37,31,45,225,40*7E
$GPGSV,3,2,11,25,34,124,42,16,22,299,20,05,18,059,33,20,06,145,*7A
$GPGSV,3,3,11,23,05,314,19,02,03,039,07,09,02,349,*4A
$GPRMC,151923.000,A,5024.4762,N,00921.9805,E,18.00,196.70,010518,,,A*54
$GPGGA,151924.000,5024.4713,N,00921.9783,E,1,06,1.3,373.3,M,48.0,M,,0000*57
$GPGSA,A,3,05,31,29,26,25,21,,,,,,,3.1,1.3,2.8*34
$GPRMC,151924.000,A,5024.4713,N,00921.9783,E,18.13,196.23,010518,,,A*50
$GPGGA,151925.000,5024.4664,N,00921.9759,E,1,06,1.3,372.9,M,48.0,M,,0000*5B
$GPGSA,A,3,05,31,29,26,25,21,,,,,,,3.1,1.3,2.8*34
$GPRMC,151925.000,A,5024.4664,N,00921.9759,E,18.34,196.96,010518,,,A*5C
$GPGGA,151926.000,5024.4614,N,00921.9737,E,1,06,1.3,372.9,M,48.0,M,,0000*57
$GPGSA,A,3,05,31,29,26,25,21,,,,,,,3.1,1.3,2.8*34
$GPRMC,151926.000,A,5024.4614,N,00921.9737,E,18.44,196.15,010518,,,A*5C
$GPGGA,151927.000,5024.4563,N,00921.9715,E,1,06,1.3,373.0,M,48.0,M,,0000*5D
$GPGSA,A,3,05,31,29,26,25,21,,,,,,,3.1,1.3,2.8*34
$GPRMC,151927.000,A,5024.4563,N,00921.9715,E,18.52,196.00,010518,,,A*5D
$GPGGA,151928.000,5024.4514,N,00921.9693,E,1,06,1.3,373.0,M,48.0,M,,0000*5D
$GPGSA,A,3,05,31,29,26,25,21,,,,,,,3.1,1.3,2.8*34
$GPGSV,3,1,11,29,62,061,39,26,51,297,36,21,46,183,36,31,45,225,40*7C
$GPGSV,3,2,11,25,34,124,41,16,22,299,16,05,18,059,24,20,06,145,*7A
$GPGSV,3,3,11,23,05,314,17,02,03,039,,09,02,349,*43
$GPRMC,151928.000,A,5024.4514,N,00921.9693,E,18.25,196.65,010518,,,A*5E
$GPGGA,151929.000,5024.4465,N,00921.9670,E,1,06,1.3,373.4,M,48.0,M,,0000*52
$GPGSA,A,3,05,31,29,26,25,21,,,,,,,3.1,1.3,2.8*34
$GPRMC,151929.000,A,5024.4465,N,00921.9670,E,17.98,197.69,010518,,,A*51
$GPGGA,151930.000,5024.4417,N,00921.9646,E,1,06,1.3,374.2,M,48.0,M,,0000*5B
$GPGSA,A,3,05,31,29,26,25,21,,,,,,,3.1,1.3,2.8*34
$GPRMC,151930.000,A,5024.4417,N,00921.9646,E,17.77,199.26,010518,,,A*5D
$GPGGA,151931.000,5024.4371,N,00921.9620,E,1,06,1.3,374.9,M,48.0,M,,0000*56
$GPGSA,A,3,05,31,29,26,25,21,,,,,,,3.1,1.3,2.8*34
$GPRMC,151931.000,A,5024.4371,N,00921.9620,E,17.36,201.96,010518,,,A*57
$GPGGA,151932.000,5024.4326,N,00921.9593,E,1,06,1.3,375.4,M,48.0,M,,0000*50
$GPGSA,A,3,05,31,29,26,25,21,,,,,,,3.1,1.3,2.8*34
$GPRMC,151932.000,A,5024.4326,N,00921.9593,E,16.99,202.38,010518,,,A*5E
$GPGGA,151933.000,5024.4281,N,00921.9567,E,1,06,1.3,376.0,M,48.0,M,,0000*51
$GPGSA,A,3,05,31,29,26,25,21,,,,,,,3.1,1.3,2.8*34
$GPGSV,3,1,11,29,62,061,39,26,51,297,36,21,46,183,30,31,45,225,34*79
$GPGSV,3,2,11,25,34,124,38,16,22,299,21,05,18,059,36,20,06,145,*73
$GPGSV,3,3,11,23,05,314,15,02,03,039,11,09,02,349,*41
$GPRMC,151933.000,A,5024.4281,N,00921.9567,E,16.87,201.08,010518,,,A*57
$GPGGA,151934.000,5024.4236,N,00921.9540,E,1,06,1.3,376.5,M,48.0,M,,0000*5A
$GPGSA,A,3,05,31,29,26,25,21,,,,,,,3.1,1.3,2.8*34
$GPRMC,151934.000,A,5024.4236,N,00921.9540,E,16.99,201.12,010518,,,A*5D
$GPGGA,151935.000,5024.4191,N,00921.9513,E,1,06,1.3,377.1,M,48.0,M,,0000*56
$GPGSA,A,3,05,31,29,26,25,21,,,,,,,3.1,1.3,2.8*34
$GPRMC,151935.000,A,5024.4191,N,00921.9513,E,17.19,202.22,010518,,,A*5D
$GPGGA,151936.000,5024.4146,N,00921.9485,E,1,06,1.3,377.7,M,48.0,M,,0000*57
$GPGSA,A,3,05,31,29,26,25,21,,,,,,,3.1,1.3,2.8*34
$GPRMC,151936.000,A,5024.4146,N,00921.9485,E,17.31,202.75,010518,,,A*52
$GPGGA,151937.000,5024.4102,N,00921.9453,E,1,06,1.3,378.2,M,48.0,M,,0000*57
$GPGSA,A,3,05,31,29,26,25,21,,,,,,,3.1,1.3,2.8*34
$GPRMC,151937.000,A,5024.4102,N,00921.9453,E,17.27,206.27,010518,,,A*5C
$GPGGA,151938.000,5024.4060,N,00921.9417,E,1,06,1.3,378.8,M,48.0,M,,0000*57
$GPGSA,A,3,05,31,29,26,25,21,,,,,,,3.1,1.3,2.8*34
$GPGSV,3,1,11,29,62,061,39,26,51,297,25,21,46,183,25,31,45,225,35*7E
$GPGSV,3,2,11,25,34,124,41,16,22,299,30,05,18,059,31,20,06,145,*7A
$GPGSV,3,3,11,23,05,314,17,02,03,039,15,09,02,349,11*47
$GPRMC,151938.000,A,5024.4060,N,00921.9417,E,17.14,211.70,010518,,,A*52
$GPGGA,151939.000,5024.4021,N,00921.9371,E,1,06,1.3,379.0,M,48.0,M,,0000*5D
$GPGSA,A,3,05,31,29,26,25,21,,,,,,,3.1,1.3,2.8*34
$GPRMC,151939.000,A,5024.4021,N,00921.9371,E,17.30,219.00,010518,,,A*58
$GPGGA,151940.000,5024.3984,N,00921.9318,E,1,06,1.3,379.1,M,48.0,M,,0000*5C
$GPGSA,A,3,05,31,29,26,25,21,,,,,,,3.1,1.3,2.8*34
$GPRMC,151940.000,A,5024.3984,N,00921.9318,E,17.92,222.00,010518,,,A*58
$GPGGA,151941.000,5024.3946,N,00921.9261,E,1,06,1.3,379.0,M,48.0,M,,0000*5D
$GPGSA,A,3,05,31,29,26,25,21,,,,,,,3.1,1.3,2.8*34
$GPRMC,151941.000,A,5024.3946,N,00921.9261,E,18.77,222.01,010518,,,A*5D
$GPGGA,151942.000,5024.3906,N,00921.9203,E,1,06,1.3,379.1,M,48.0,M,,0000*5F
$GPGSA,A,3,05,31,29,26,25,21,,,,,,,3.1,1.3,2.8*34
$GPRMC,151942.000,A,5024.3906,N,00921.9203,E,19.60,221.15,010518,,,A*5F
$GPGGA,151943.000,5024.3863,N,00921.9143,E,1,06,1.3,378.9,M,48.0,M,,0000*52
$GPGSA,A,3,05,31,29,26,25,21,,,,,,,3.1,1.3,2.8*34
$GPGSV,3,1,11,29,62,061,41,26,51,297,20,21,46,183,37,31,45,225,40*75
$GPGSV,3,2,11,25,34,124,44,16,22,299,33,05,18,059,30,20,06,145,07*7A
$GPGSV,3,3,11,23,05,314,22,02,03,039,17,09,02,349,07*44
$GPRMC,151943.000,A,5024.3863,N,00921.9143,E,20.48,219.59,010518,,,A*58
$GPGGA,151944.000,5024.3817,N,00921.9085,E,1,06,1.3,378.8,M,48.0,M,,0000*5C
$GPGSA,A,3,05,31,29,26,25,21,,,,,,,3.1,1.3,2.8*34
$GPRMC,151944.000,A,5024.3817,N,00921.9085,E,21.30,214.43,010518,,,A*5F
$GPGGA,151945.000,5024.3766,N,00921.9033,E,1,06,1.3,378.5,M,48.0,M,,0000*54
$GPGSA,A,3,05,31,29,26,25,21,,,,,,,3.1,1.3,2.8*34
$GPRMC,151945.000,A,5024.3766,N,00921.9033,E,21.90,211.18,010518,,,A*5B
$GPGGA,151946.000,5024.3710,N,00921.8985,E,1,06,1.3,378.2,M,48.0,M,,0000*54
$GPGSA,A,3,05,31,29,26,25,21,,,,,,,3.1,1.3,2.8*34
$GPRMC,151946.000,A,5024.3710,N,00921.8985,E,22.54,207.18,010518,,,A*50
$GPGGA,151947.000,5024.3652,N,00921.8941,E,1,06,1.3,378.1,M,48.0,M,,0000*59
$GPGSA,A,3,05,31,29,26,25,21,,,,,,,3.1,1.3,2.8*34
$GPRMC,151947.000,A,5024.3652,N,00921.8941,E,23.21,205.29,010518,,,A*5D
$GPGGA,151948.000,5024.3594,N,00921.8896,E,1,06,1.3,377.8,M,48.0,M,,0000*52
$GPGSA,A,3,05,31,29,26,25,21,,,,,,,3.1,1.3,2.8*34
$GPGSV,3,1,11,29,62,061,40,26,51,297,34,21,46,183,23,31,45,225,40*74
$GPGSV,3,2,11,25,34,124,36,16,22,299,22,05,18,059,27,20,06,145,09*77
$GPGSV,3,3,11,23,05,314,,02,03,039,17,09,02,349,*43
$GPRMC,151948.000,A,5024.3594,N,00921.8896,E,23.19,206.02,010518,,,A*51
$GPGGA,151949.000,5024.3536,N,00921.8853,E,1,06,1.3,377.6,M,48.0,M,,0000*5C
$GPGSA,A,3,05,31,29,26,25,21,,,,,,,3.1,1.3,2.8*34
$GPRMC,151949.000,A,5024.3536,N,00921.8853,E,22.84,205.90,010518,,,A*5C
$GPGGA,151950.000,5024.3480,N,00921.8809,E,1,06,1.3,377.2,M,48.0,M,,0000*53
$GPGSA,A,3,05,31,29,26,25,21,,,,,,,3.1,1.3,2.8*34
$GPRMC,151950.000,A,5024.3480,N,00921.8809,E,22.90,204.87,010518,,,A*55
$GPGGA,151951.000,5024.3423,N,00921.8766,E,1,06,1.3,376.8,M,48.0,M,,0000*56
$GPGSA,A,3,05,31,29,26,25,21,,,,,,,3.1,1.3,2.8*34
$GPRMC,151951.000,A,5024.3423,N,00921.8766,E,22.91,206.17,010518,,,A*51
$GPGGA,151952.000,5024.3367,N,00921.8721,E,1,06,1.3,376.3,M,48.0,M,,0000*5A
$GPGSA,A,3,05,31,29,26,25,21,,,,,,,3.1,1.3,2.8*34
$GPRMC,151952.000,A,5024.3367,N,00921.8721,E,22.71,207.90,010518,,,A*56
$GPGGA,151953.000,5024.3312,N,00921.8674,E,1,06,1.3,376.0,M,48.0,M,,0000*5B
$GPGSA,A,3,05,31,29,26,25,21,,,,,,,3.1,1.3,2.8*34
$GPGSV,3,1,11,29,62,061,39,26,51,297,35,21,46,183,24,31,45,225,36*7D
$GPGSV,3,2,11,25,34,124,32,16,22,299,31,05,18,059,21,20,06,145,09*77
$GPGSV,3,3,11,23,05,314,,02,03,039,15,09,02,349,07*46
$GPRMC,151953.000,A,5024.3312,N,00921.8674,E,22.67,208.70,010518,,,A*52
$GPGGA,151954.000,5024.3254,N,00921.8628,E,1,06,1.3,375.8,M,48.0,M,,0000*5D
$GPGSA,A,3,05,31,29,26,25,21,,,,,,,3.1,1.3,2.8*34
$GPRMC,151954.000,A,5024.3254,N,00921.8628,E,22.95,207.39,010518,,,A*50
$GPGGA,151955.000,5024.3196,N,00921.8582,E,1,06,1.3,375.8,M,48.0,M,,0000*52
$GPGSA,A,3,05,31,29,26,25,21,,,,,,,3.1,1.3,2.8*34
$GPRMC,151955.000,A,5024.3196,N,00921.8582,E,23.21,208.79,010518,,,A*5A
$GPGGA,151956.000,5024.3139,N,00921.8533,E,1,06,1.3,376.0,M,48.0,M,,0000*55
$GPGSA,A,3,05,31,29,26,25,21,,,,,,,3.1,1.3,2.8*34
$GPRMC,151956.000,A,5024.3139,N,00921.8533,E,23.24,210.22,010518,,,A*54
$GPGGA,151957.000,5024.3082,N,00921.8483,E,1,06,1.3,375.9,M,48.0,M,,0000*55
$GPGSA,A,3,05,31,29,26,25,21,,,,,,,3.1,1.3,2.8*34
$GPRMC,151957.000,A,5024.3082,N,00921.8483,E,23.15,210.69,010518,,,A*53
$GPGGA,151958.000,5024.3026,N,00921.8432,E,1,06,1.3,376.0,M,48.0,M,,0000*54
$GPGSA,A,3,05,31,29,26,25,21,,,,,,,3.1,1.3,2.8*34
$GPGSV,3,1,11,29,62,061,37,26,51,297,35,21,46,183,31,31,45,225,38*79
$GPGSV,3,2,11,25,34,124,37,16,22,299,20,05,18,059,28,20,06,145,*72
$GPGSV,3,3,11,23,05,314,22,02,03,039,,09,02,349,09*4C
$GPRMC,151958.000,A,5024.3026,N,00921.8432,E,22.99,211.31,010518,,,A*51
$GPGGA,151959.000,5024.2974,N,00921.8380,E,1,06,1.3,375.9,M,48.0,M,,0000*5E
$GPGSA,A,3,05,31,29,26,25,21,,,,,,,3.1,1.3,2.8*34
$GPRMC,151959.000,A,5024.2974,N,00921.8380,E,22.16,215.98,010518,,,A*51
$GPGGA,152000.000,5024.2930,N,00921.8325,E,1,06,1.3,375.7,M,48.0,M,,0000*59
$GPGSA,A,3,05,31,29,26,25,21,,,,,,,3.1,1.3,2.8*34
$GPRMC,152000.000,A,5024.2930,N,00921.8325,E,20.64,221.20,010518,,,A*5B
$GPGGA,152001.000,5024.2892,N,00921.8265,E,1,06,1.3,375.8,M,48.0,M,,0000*5B
$GPGSA,A,3,05,31,29,26,25,21,,,,,,,3.1,1.3,2.8*34
$GPRMC,152001.000,A,5024.2892,N,00921.8265,E,19.61,226.04,010518,,,A*58
$GPGGA,152002.000,5024.2871,N,00921.8192,E,1,06,1.3,375.0,M,48.0,M,,0000*56
$GPGSA,A,3,05,31,29,26,25,21,,,,,,,3.1,1.3,2.8*34
$GPRMC,152002.000,A,5024.2871,N,00921.8192,E,18.88,243.75,010518,,,A*5E
$GPGGA,152003.000,5024.2855,N,00921.8120,E,1,06,1.3,374.4,M,48.0,M,,0000*5D
$GPGSA,A,3,05,31,29,26,25,21,,,,,,,3.1,1.3,2.8*34
$GPGSV,3,1,11,29,62,061,41,26,51,297,34,21,46,183,43,31,45,225,26*73
$GPGSV,3,2,11,25,34,124,26,16,22,299,25,05,18,059,18,20,06,145,13*76
$GPGSV,3,3,11,23,05,314,28,02,03,039,,09,02,349,*4F
$GPRMC,152003.000,A,5024.2855,N,00921.8120,E,17.85,248.15,010518,,,A*5F
$GPGGA,152004.000,5024.2840,N,00921.8055,E,1,06,1.3,373.1,M,48.0,M,,0000*5F
$GPGSA,A,3,05,31,29,26,25,21,,,,,,,3.1,1.3,2.8*34
$GPRMC,152004.000,A,5024.2840,N,00921.8055,E,16.39,246.41,010518,,,A*56
$GPGGA,152005.000,5024.2825,N,00921.8000,E,1,06,1.3,371.4,M,48.0,M,,0000*5A
$GPGSA,A,3,05,31,29,26,25,21,,,,,,,3.1,1.3,2.8*34
$GPRMC,152005.000,A,5024.2825,N,00921.8000,E,14.57,238.93,010518,,,A*58
$GPGGA,152006.000,5024.2803,N,00921.7956,E,1,06,1.3,371.1,M,48.0,M,,0000*5D
$GPGSA,A,3,05,31,29,26,25,21,,,,,,,3.1,1.3,2.8*34
$GPRMC,152006.000,A,5024.2803,N,00921.7956,E,13.04,225.61,010518,,,A*5A
$GPGGA,152007.000,5024.2776,N,00921.7927,E,1,06,1.3,370.8,M,48.0,M,,0000*5F
$GPGSA,A,3,05,31,29,26,25,21,,,,,,,3.1,1.3,2.8*34
$GPRMC,152007.000,A,5024.2776,N,00921.7927,E,11.94,210.26,010518,,,A*5E
$GPGGA,152008.000,5024.2743,N,00921.7922,E,1,06,1.3,370.5,M,48.0,M,,0000*5E
$GPGSA,A,3,05,31,29,26,25,21,,,,,,,3.1,1.3,2.8*34
$GPGSV,3,1,11,29,62,061,40,26,51,297,33,21,46,183,33,31,45,225,39*7C
$GPGSV,3,2,11,25,34,124,35,16,22,299,34,05,18,059,31,20,06,145,14*78
$GPGSV,3,3,11,23,05,314,20,02,03,039,,09,02,349,11*47
$GPRMC,152008.000,A,5024.2743,N,00921.7922,E,11.50,183.74,010518,,,A*54
$GPGGA,152009.000,5024.2703,N,00921.7930,E,1,06,1.3,371.3,M,48.0,M,,0000*5F
$GPGSA,A,3,05,31,29,26,25,21,,,,,,,3.1,1.3,2.8*34
$GPRMC,152009.000,A,5024.2703,N,00921.7930,E,12.87,172.79,010518,,,A*58
$GPGGA,152010.000,5024.2661,N,00921.7938,E,1,06,1.3,371.7,M,48.0,M,,0000*5E
$GPGSA,A,3,05,31,29,26,25,21,,,,,,,3.1,1.3,2.8*34
$GPRMC,152010.000,A,5024.2661,N,00921.7938,E,14.62,177.36,010518,,,A*5E
$GPGGA,152011.000,5024.2616,N,00921.7939,E,1,06,1.3,372.0,M,48.0,M,,0000*5A
$GPGSA,A,3,05,31,29,26,25,21,,,,,,,3.1,1.3,2.8*34
$GPRMC,152011.000,A,5024.2616,N,00921.7939,E,15.76,183.50,010518,,,A*51
$GPGGA,152012.000,5024.2569,N,00921.7930,E,1,06,1.3,372.0,M,48.0,M,,0000*5B
$GPGSA,A,3,05,31,29,26,25,21,,,,,,,3.1,1.3,2.8*34
$GPRMC,152012.000,A,5024.2569,N,00921.7930,E,16.93,190.66,010518,,,A*5F
$GPGGA,152013.000,5024.2521,N,00921.7911,E,1,06,1.3,371.9,M,48.0,M,,0000*5F
$GPGSA,A,3,05,31,29,26,25,21,,,,,,,3.1,1.3,2.8*34
$GPGSV,3,1,11,29,61,062,41,26,52,297,30,21,46,183,31,31,45,225,39*7F
$GPGSV,3,2,11,25,33,125,35,16,22,300,35,05,18,059,24,20,07,145,*7E
$GPGSV,3,3,11,23,05,314,26,02,02,039,,09,02,349,25*47
$GPRMC,152013.000,A,5024.2521,N,00921.7911,E,17.92,197.00,010518,,,A*56
$GPGGA,152014.000,5024.2471,N,00921.7885,E,1,06,1.3,370.5,M,48.0,M,,0000*5D
$GPGSA,A,3,05,31,29,26,25,21,,,,,,,3.1,1.3,2.8*34
$GPRMC,152014.000,A,5024.2471,N,00921.7885,E,19.14,200.68,010518,,,A*5A
$GPGGA,152015.000,5024.2417,N,00921.7850,E,1,06,1.3,371.3,M,48.0,M,,0000*53
$GPGSA,A,3,05,31,29,26,25,21,,,,,,,3.1,1.3,2.8*34
$GPRMC,152015.000,A,5024.2417,N,00921.7850,E,20.29,205.59,010518,,,A*50
$GPGGA,152016.000,5024.2363,N,00921.7807,E,1,06,1.3,371.7,M,48.0,M,,0000*52
$GPGSA,A,3,05,31,29,26,25,21,,,,,,,3.1,1.3,2.8*34
$GPRMC,152016.000,A,5024.2363,N,00921.7807,E,21.36,209.07,010518,,,A*5D
$GPGGA,152017.000,5024.2303,N,00921.7762,E,1,06,1.3,372.8,M,48.0,M,,0000*55
$GPGSA,A,3,05,31,29,26,25,21,,,,,,,3.1,1.3,2.8*34
$GPRMC,152017.000,A,5024.2303,N,00921.7762,E,22.79,207.57,010518,,,A*55
$GPGGA,152018.000,5024.2241,N,00921.7714,E,1,06,1.3,373.2,M,48.0,M,,0000*57
$GPGSA,A,3,05,31,29,26,25,21,,,,,,,3.1,1.3,2.8*34
$GPGSV,3,1,11,29,61,062,41,26,52,297,26,21,46,183,30,31,45,225,33*73
$GPGSV,3,2,11,25,33,125,31,16,22,300,31,05,18,059,25,20,07,145,*7F
$GPGSV,3,3,11,23,05,314,27,02,02,039,,09,02,349,24*47
$GPRMC,152018.000,A,5024.2241,N,00921.7714,E,24.30,206.19,010518,,,A*5C
$GPGGA,152019.000,5024.2177,N,00921.7665,E,1,06,1.3,373.5,M,48.0,M,,0000*50
$GPGSA,A,3,05,31,29,26,25,21,,,,,,,3.1,1.3,2.8*34
$GPRMC,152019.000,A,5024.2177,N,00921.7665,E,25.43,205.63,010518,,,A*57
$GPGGA,152020.000,5024.2108,N,00921.7612,E,1,06,1.3,375.1,M,48.0,M,,0000*50
$GPGSA,A,3,05,31,29,26,25,21,,,,,,,3.1,1.3,2.8*34
$GPRMC,152020.000,A,5024.2108,N,00921.7612,E,26.67,206.09,010518,,,A*5F
$GPGGA,152021.000,5024.2036,N,00921.7560,E,1,06,1.3,375.5,M,48.0,M,,0000*5F
$GPGSA,A,3,05,31,29,26,25,21,,,,,,,3.1,1.3,2.8*34
$GPRMC,152021.000,A,5024.2036,N,00921.7560,E,28.07,202.66,010518,,,A*51
$GPGGA,152022.000,5024.1958,N,00921.7519,E,1,06,1.3,376.2,M,48.0,M,,0000*54
$GPGSA,A,3,05,31,29,26,25,21,,,,,,,3.1,1.3,2.8*34
$GPRMC,152022.000,A,5024.1958,N,00921.7519,E,29.08,196.65,010518,,,A*5D
$GPGGA,152023.000,5024.1876,N,00921.7488,E,1,06,1.3,376.2,M,48.0,M,,0000*51
$GPGSA,A,3,05,31,29,26,25,21,,,,,,,3.1,1.3,2.8*34
$GPGSV,3,1,11,29,61,062,42,26,52,297,37,21,46,183,37,31,45,225,41*72
$GPGSV,3,2,11,25,33,125,42,16,22,300,32,05,18,059,31,20,07,145,24*7B
$GPGSV,3,3,11,23,05,314,27,02,02,039,17,09,02,349,13*45
$GPRMC,152023.000,A,5024.1876,N,00921.7488,E,29.87,191.07,010518,,,A*5C
$GPGGA,152024.000,5024.1792,N,00921.7469,E,1,06,1.3,376.0,M,48.0,M,,0000*5E
$GPGSA,A,3,05,31,29,26,25,21,,,,,,,3.1,1.3,2.8*34
$GPRMC,152024.000,A,5024.1792,N,00921.7469,E,30.54,185.96,010518,,,A*5A
$GPGGA,152025.000,5024.1705,N,00921.7462,E,1,06,1.3,375.6,M,48.0,M,,0000*5F
$GPGSA,A,3,05,31,29,26,25,21,,,,,,,3.1,1.3,2.8*34
$GPRMC,152025.000,A,5024.1705,N,00921.7462,E,31.02,180.83,010518,,,A*5D
$GPGGA,152026.000,5024.1616,N,00921.7467,E,1,06,1.3,374.9,M,48.0,M,,0000*54
$GPGSA,A,3,05,31,29,26,25,21,,,,,,,3.1,1.3,2.8*34
$GPRMC,152026.000,A,5024.1616,N,00921.7467,E,31.67,176.07,010518,,,A*5E
$GPGGA,152027.000,5024.1527,N,00921.7483,E,1,06,1.3,373.9,M,48.0,M,,0000*59
$GPGSA,A,3,05,31,29,26,25,21,,,,,,,3.1,1.3,2.8*34
$GPRMC,152027.000,A,5024.1527,N,00921.7483,E,32.42,171.16,010518,,,A*57
$GPGGA,152028.000,5024.1437,N,00921.7513,E,1,06,1.3,373.1,M,48.0,M,,0000*56
$GPGSA,A,3,05,31,29,26,25,21,,,,,,,3.1,1.3,2.8*34
$GPGSV,3,1,11,29,61,062,41,26,52,297,38,21,46,183,38,31,45,225,31*76
$GPGSV,3,2,11,25,33,125,39,16,22,300,19,05,18,059,37,20,07,145,28*74
$GPGSV,3,3,11,23,05,314,25,02,02,039,12,09,02,349,13*42
$GPRMC,152028.000,A,5024.1437,N,00921.7513,E,32.99,166.20,010518,,,A*55
$GPGGA,152029.000,5024.1347,N,00921.7556,E,1,06,1.3,372.1,M,48.0,M,,0000*57
$GPGSA,A,3,05,31,29,26,25,21,,,,,,,3.1,1.3,2.8*34
$GPRMC,152029.000,A,5024.1347,N,00921.7556,E,33.63,160.80,010518,,,A*5D
$GPGGA,152030.000,5024.1258,N,00921.7614,E,1,06,1.3,371.1,M,48.0,M,,0000*56
$GPGSA,A,3,05,31,29,26,25,21,,,,,,,3.1,1.3,2.8*34
$GPRMC,152030.000,A,5024.1258,N,00921.7614,E,34.49,155.68,010518,,,A*50
$GPGGA,152031.000,5024.1170,N,00921.7682,E,1,06,1.3,369.7,M,48.0,M,,0000*5E
$GPGSA,A,3,05,31,29,26,25,21,,,,,,,3.1,1.3,2.8*34
$GPRMC,152031.000,A,5024.1170,N,00921.7682,E,35.38,153.66,010518,,,A*58
$GPGGA,152032.000,5024.1080,N,00921.7754,E,1,06,1.3,368.4,M,48.0,M,,0000*5B
$GPGSA,A,3,05,31,29,26,25,21,,,,,,,3.1,1.3,2.8*34
$GPRMC,152032.000,A,5024.1080,N,00921.7754,E,36.16,153.03,010518,,,A*53
$GPGGA,152033.000,5024.0988,N,00921.7829,E,1,06,1.3,367.3,M,48.0,M,,0000*57
$GPGSA,A,3,05,31,29,26,25,21,,,,,,,3.1,1.3,2.8*34
$GPGSV,3,1,11,29,61,062,42,26,52,297,39,21,46,183,38,31,45,225,33*76
$GPGSV,3,2,11,25,33,125,31,16,22,300,30,05,18,059,39,20,07,145,26*77
$GPGSV,3,3,11,23,05,314,,02,02,039,,09,02,349,*44
$GPRMC,152033.000,A,5024.0988,N,00921.7829,E,36.86,153.23,010518,,,A*5C
$GPGGA,152034.000,5024.0895,N,00921.7905,E,1,06,1.3,366.3,M,48.0,M,,0000*53
$GPGSA,A,3,05,31,29,26,25,21,,,,,,,3.1,1.3,2.8*34
$GPRMC,152034.000,A,5024.0895,N,00921.7905,E,37.48,152.79,010518,,,A*54
$GPGGA,152035.000,5024.0801,N,00921.7983,E,1,06,1.3,365.4,M,48.0,M,,0000*55
$GPGSA,A,3,05,31,29,26,25,21,,,,,,,3.1,1.3,2.8*34
$GPRMC,152035.000,A,5024.0801,N,00921.7983,E,37.94,152.56,010518,,,A*5A
$GPGGA,152036.000,5024.0706,N,00921.8060,E,1,06,1.3,364.5,M,48.0,M,,0000*55
$GPGSA,A,3,05,31,29,26,25,21,,,,,,,3.1,1.3,2.8*34
$GPRMC,152036.000,A,5024.0706,N,00921.8060,E,38.18,152.74,010518,,,A*51
$GPGGA,152037.000,5024.0611,N,00921.8137,E,1,06,1.3,363.7,M,48.0,M,,0000*55
$GPGSA,A,3,05,31,29,26,25,21,,,,,,,3.1,1.3,2.8*34
$GPRMC,152037.000,A,5024.0611,N,00921.8137,E,38.22,153.23,010518,,,A*5E
$GPGGA,152038.000,5024.0516,N,00921.8212,E,1,06,1.3,363.0,M,48.0,M,,0000*5D
$GPGSA,A,3,05,31,29,26,25,21,,,,,,,3.1,1.3,2.8*34
$GPGSV,3,1,11,29,61,062,42,26,52,297,36,21,46,183,38,31,45,225,28*73
$GPGSV,3,2,11,25,33,125,33,16,22,300,18,05,18,059,38,20,07,145,26*7E
$GPGSV,3,3,11,23,05,314,16,02,02,039,,09,02,348,*42
$GPRMC,152038.000,A,5024.0516,N,00921.8212,E,38.02,153.83,010518,,,A*59
$GPGGA,152039.000,5024.0421,N,00921.8282,E,1,06,1.3,362.2,M,48.0,M,,0000*53
$GPGSA,A,3,05,31,29,26,25,21,,,,,,,3.1,1.3,2.8*34
$GPRMC,152039.000,A,5024.0421,N,00921.8282,E,37.62,155.34,010518,,,A*57
$GPGGA,152040.000,5024.0325,N,00921.8347,E,1,06,1.3,361.3,M,48.0,M,,0000*54
$GPGSA,A,3,05,31,29,26,25,21,,,,,,,3.1,1.3,2.8*34
$GPRMC,152040.000,A,5024.0325,N,00921.8347,E,37.29,157.05,010518,,,A*5D
$GPGGA,152041.000,5024.0229,N,00921.8406,E,1,06,1.3,360.5,M,48.0,M,,0000*5D
$GPGSA,A,3,05,31,29,26,25,21,,,,,,,3.1,1.3,2.8*34
$GPRMC,152041.000,A,5024.0229,N,00921.8406,E,37.09,159.55,010518,,,A*5A
$GPGGA,152042.000,5024.0132,N,00921.8460,E,1,06,1.3,359.7,M,48.0,M,,0000*5F
$GPGSA,A,3,05,31,29,26,25,21,,,,,,,3.1,1.3,2.8*34
$GPRMC,152042.000,A,5024.0132,N,00921.8460,E,36.94,160.68,010518,,,A*51
$GPGGA,152043.000,5024.0035,N,00921.8513,E,1,06,1.3,359.2,M,48.0,M,,0000*58
$GPGSA,A,3,05,31,29,26,25,21,,,,,,,3.1,1.3,2.8*34
$GPGSV,3,1,11,29,61,062,43,26,52,297,41,21,46,183,40,31,45,225,30*74
$GPGSV,3,2,11,25,33,125,33,16,22,300,31,05,18,058,29,20,07,145,26*74
$GPGSV,3,3,11,23,05,314,30,02,02,039,,09,02,348,*46
$GPRMC,152043.000,A,5024.0035,N,00921.8513,E,36.99,160.78,010518,,,A*5F
$GPGGA,152044.000,5023.9937,N,00921.8566,E,1,06,1.3,358.5,M,48.0,M,,0000*5E
$GPGSA,A,3,05,31,29,26,25,21,,,,,,,3.1,1.3,2.8*34
$GPRMC,152044.000,A,5023.9937,N,00921.8566,E,37.18,160.29,010518,,,A*53
$GPGGA,152045.000,5023.9838,N,00921.8621,E,1,06,1.3,358.1,M,48.0,M,,0000*55
$GPGSA,A,3,05,31,29,26,25,21,,,,,,,3.1,1.3,2.8*34
$GPRMC,152045.000,A,5023.9838,N,00921.8621,E,37.42,160.07,010518,,,A*5F
$GPGGA,152046.000,5023.9740,N,00921.8676,E,1,06,1.3,357.5,M,48.0,M,,0000*5F
$GPGSA,A,3,05,31,29,26,25,21,,,,,,,3.1,1.3,2.8*34
$GPRMC,152046.000,A,5023.9740,N,00921.8676,E,37.67,159.66,010518,,,A*54
$GPGGA,152047.000,5023.9641,N,00921.8734,E,1,06,1.4,356.6,M,48.0,M,,0000*5C
$GPGSA,A,3,05,31,29,26,25,21,,,,,,,3.1,1.4,2.8*33
$GPRMC,152047.000,A,5023.9641,N,00921.8734,E,37.89,158.36,010518,,,A*56
$GPGGA,152048.000,5023.9542,N,00921.8795,E,1,06,1.4,355.9,M,48.0,M,,0000*54
$GPGSA,A,3,05,31,29,26,25,21,,,,,,,3.1,1.4,2.8*33
$GPGSV,3,1,11,29,61,062,42,26,52,297,40,21,46,183,40,31,45,225,22*77
$GPGSV,3,2,11,25,33,125,33,16,22,300,31,05,18,058,39,20,07,145,11*71
$GPGSV,3,3,11,23,05,314,26,02,02,039,07,09,02,348,*46
$GPRMC,152048.000,A,5023.9542,N,00921.8795,E,38.12,158.08,010518,,,A*52
$GPGGA,152049.000,5023.9444,N,00921.8859,E,1,06,1.4,355.3,M,48.0,M,,0000*57
$GPGSA,A,3,05,31,29,26,25,21,,,,,,,3.1,1.4,2.8*33
$GPRMC,152049.000,A,5023.9444,N,00921.8859,E,38.30,157.09,010518,,,A*55
$GPGGA,152050.000,5023.9347,N,00921.8925,E,1,06,1.4,354.6,M,48.0,M,,0000*55
$GPGSA,A,3,05,31,29,26,25,21,,,,,,,3.1,1.4,2.8*33
$GPRMC,152050.000,A,5023.9347,N,00921.8925,E,38.17,156.13,010518,,,A*5C
$GPGGA,152051.000,5023.9251,N,00921.8993,E,1,06,1.4,354.0,M,48.0,M,,0000*59
$GPGSA,A,3,05,31,29,26,25,21,,,,,,,3.1,1.4,2.8*33
$GPRMC,152051.000,A,5023.9251,N,00921.8993,E,37.96,155.44,010518,,,A*51
$GPGGA,152052.000,5023.9155,N,00921.9062,E,1,06,1.4,353.4,M,48.0,M,,0000*58
$GPGSA,A,3,05,31,29,26,25,21,,,,,,,3.1,1.4,2.8*33
$GPRMC,152052.000,A,5023.9155,N,00921.9062,E,37.91,154.55,010518,,,A*55
$GPGGA,152053.000,5023.9061,N,00921.9134,E,1,06,1.4,352.9,M,48.0,M,,0000*51
$GPGSA,A,3,05,31,29,26,25,21,,,,,,,3.1,1.4,2.8*33
$GPGSV,3,1,11,29,61,062,42,26,52,297,41,21,46,183,39,31,45,225,22*78
$GPGSV,3,2,11,25,33,125,31,16,22,300,31,05,18,058,36,20,07,145,12*7F
$GPGSV,3,3,11,23,05,314,25,02,02,039,07,09,02,348,*45
$GPRMC,152053.000,A,5023.9061,N,00921.9134,E,37.90,153.96,010518,,,A*59
$GPGGA,152054.000,5023.8967,N,00921.9209,E,1,06,1.4,352.2,M,48.0,M,,0000*5E
$GPGSA,A,3,05,31,29,26,25,21,,,,,,,3.1,1.4,2.8*33
$GPRMC,152054.000,A,5023.8967,N,00921.9209,E,37.92,152.88,010518,,,A*51
$GPGGA,152055.000,5023.8873,N,00921.9285,E,1,06,1.4,351.8,M,48.0,M,,0000*56
$GPGSA,A,3,05,31,29,26,25,21,,,,,,,3.1,1.4,2.8*33
$GPRMC,152055.000,A,5023.8873,N,00921.9285,E,37.96,152.62,010518,,,A*50
$GPGGA,152056.000,5023.8780,N,00921.9362,E,1,06,1.4,351.3,M,48.0,M,,0000*55
$GPGSA,A,3,05,31,29,26,25,21,,,,,,,3.1,1.4,2.8*33
$GPRMC,152056.000,A,5023.8780,N,00921.9362,E,37.92,152.56,010518,,,A*5B
$GPGGA,152057.000,5023.8687,N,00921.9436,E,1,06,1.4,351.0,M,48.0,M,,0000*57
$GPGSA,A,3,05,31,29,26,25,21,,,,,,,3.1,1.4,2.8*33
$GPRMC,152057.000,A,5023.8687,N,00921.9436,E,37.58,152.99,010518,,,A*5F
$GPGGA,152058.000,5023.8595,N,00921.9510,E,1,06,1.4,350.7,M,48.0,M,,0000*5B
$GPGSA,A,3,05,31,29,26,25,21,,,,,,,3.1,1.4,2.8*33
$GPGSV,3,1,11,29,61,062,41,26,52,297,41,21,46,183,39,31,45,225,31*79
$GPGSV,3,2,11,25,33,125,37,16,22,300,28,05,18,058,37,20,07,145,25*74
$GPGSV,3,3,11,23,05,314,,02,02,039,08,09,02,348,*4D
$GPRMC,152058.000,A,5023.8595,N,00921.9510,E,37.16,153.38,010518,,,A*55
$GPGGA,152059.000,5023.8503,N,00921.9580,E,1,06,1.4,350.3,M,48.0,M,,0000*58
$GPGSA,A,3,05,31,29,26,25,21,,,,,,,3.1,1.4,2.8*33
$GPRMC,152059.000,A,5023.8503,N,00921.9580,E,36.97,154.63,010518,,,A*53
$GPGGA,152100.000,5023.8410,N,00921.9646,E,1,06,1.4,350.1,M,48.0,M,,0000*5D
$GPGSA,A,3,05,31,29,26,25,21,,,,,,,3.1,1.4,2.8*33
$GPRMC,152100.000,A,5023.8410,N,00921.9646,E,36.91,157.04,010518,,,A*50
$GPGGA,152101.000,5023.8314,N,00921.9704,E,1,06,1.4,349.7,M,48.0,M,,0000*56
$GPGSA,A,3,05,31,29,26,25,21,,,,,,,3.1,1.4,2.8*33
$GPRMC,152101.000,A,5023.8314,N,00921.9704,E,36.83,159.70,010518,,,A*5B
$GPGGA,152102.000,5023.8218,N,00921.9756,E,1,06,1.4,349.4,M,48.0,M,,0000*5C
$GPGSA,A,3,05,31,29,26,25,21,,,,,,,3.1,1.4,2.8*33
$GPRMC,152102.000,A,5023.8218,N,00921.9756,E,36.81,161.98,010518,,,A*5D
$GPGGA,152103.000,5023.8119,N,00921.9802,E,1,06,1.4,349.0,M,48.0,M,,0000*55
$GPGSA,A,3,05,31,29,26,25,21,,,,,,,3.1,1.4,2.8*33
$GPGSV,3,1,11,29,61,062,42,26,52,297,41,21,46,183,39,31,45,225,37*7C
$GPGSV,3,2,11,25,33,125,34,16,22,300,18,05,18,058,37,20,07,145,28*79
$GPGSV,3,3,11,23,05,314,17,02,02,039,,09,02,348,*43
$GPRMC,152103.000,A,5023.8119,N,00921.9802,E,36.86,164.39,010518,,,A*59
$GPGGA,152104.000,5023.8020,N,00921.9841,E,1,06,1.4,348.7,M,48.0,M,,0000*58
$GPGSA,A,3,05,31,29,26,25,21,,,,,,,3.1,1.4,2.8*33
$GPRMC,152104.000,A,5023.8020,N,00921.9841,E,36.81,166.45,010518,,,A*5C
$GPGGA,152105.000,5023.7920,N,00921.9876,E,1,06,1.4,348.4,M,48.0,M,,0000*58
$GPGSA,A,3,05,31,29,26,25,21,,,,,,,3.1,1.4,2.8*33
$GPRMC,152105.000,A,5023.7920,N,00921.9876,E,36.76,167.93,010518,,,A*5D
$GPGGA,152106.000,5023.7820,N,00921.9907,E,1,06,1.4,348.0,M,48.0,M,,0000*59
$GPGSA,A,3,05,31,29,26,25,21,,,,,,,3.1,1.4,2.8*33
$GPRMC,152106.000,A,5023.7820,N,00921.9907,E,36.72,169.12,010518,,,A*5B
$GPGGA,152107.000,5023.7720,N,00921.9935,E,1,06,1.4,347.6,M,48.0,M,,0000*5F
$GPGSA,A,3,05,31,29,26,25,21,,,,,,,3.1,1.4,2.8*33
$GPRMC,152107.000,A,5023.7720,N,00921.9935,E,36.70,169.46,010518,,,A*57
$GPGGA,152108.000,5023.7620,N,00921.9962,E,1,06,1.4,347.3,M,48.0,M,,0000*56
$GPGSA,A,3,05,31,29,26,25,21,,,,,,,3.1,1.4,2.8*33
$GPGSV,3,1,11,29,61,062,43,26,52,297,41,21,47,183,38,31,45,224,36*7D
$GPGSV,3,2,11,25,33,125,39,16,23,300,25,05,18,058,38,20,07,145,17*78
$GPGSV,3,3,11,23,05,314,27,02,02,039,,09,02,348,*40
$GPRMC,152108.000,A,5023.7620,N,00921.9962,E,36.69,170.34,010518,,,A*5E
$GPGGA,152109.000,5023.7519,N,00921.9984,E,1,06,1.4,347.1,M,48.0,M,,0000*54
$GPGSA,A,3,05,31,29,26,25,21,,,,,,,3.1,1.4,2.8*33
$GPRMC,152109.000,A,5023.7519,N,00921.9984,E,36.58,172.90,010518,,,A*50
$GPGGA,152110.000,5023.7418,N,00921.9995,E,1,06,1.4,347.0,M,48.0,M,,0000*5D
$GPGSA,A,3,05,31,29,26,25,21,,,,,,,3.1,1.4,2.8*33
$GPRMC,152110.000,A,5023.7418,N,00921.9995,E,36.24,178.10,010518,,,A*51
$GPGGA,152111.000,5023.7319,N,00921.9992,E,1,06,1.4,346.9,M,48.0,M,,0000*55
$GPGSA,A,3,05,31,29,26,25,21,,,,,,,3.1,1.4,2.8*33
$GPRMC,152111.000,A,5023.7319,N,00921.9992,E,35.77,183.12,010518,,,A*52
$GPGGA,152112.000,5023.7221,N,00921.9979,E,1,06,1.4,347.0,M,48.0,M,,0000*51
$GPGSA,A,3,05,31,29,26,25,21,,,,,,,3.1,1.4,2.8*33
$GPRMC,152112.000,A,5023.7221,N,00921.9979,E,35.31,185.47,010518,,,A*5A
$GPGGA,152113.000,5023.7124,N,00921.9965,E,1,06,1.4,347.2,M,48.0,M,,0000*59
$GPGSA,A,3,05,31,29,26,25,21,,,,,,,3.1,1.4,2.8*33
$GPGSV,3,1,11,29,61,062,42,26,52,297,30,21,47,183,38,31,45,224,35*79
$GPGSV,3,2,11,25,33,125,40,16,23,300,26,05,18,058,31,20,07,145,28*70
$GPGSV,3,3,11,23,05,314,19,02,02,039,13,09,02,348,*4F
$GPRMC,152113.000,A,5023.7124,N,00921.9965,E,34.81,185.09,010518,,,A*50
$GPGGA,152114.000,5023.7028,N,00921.9952,E,1,06,1.4,347.5,M,48.0,M,,0000*50
$GPGSA,A,3,05,31,29,26,25,21,,,,,,,3.1,1.4,2.8*33
$GPRMC,152114.000,A,5023.7028,N,00921.9952,E,34.48,184.01,010518,,,A*52
$GPGGA,152115.000,5023.6933,N,00921.9944,E,1,06,1.4,347.7,M,48.0,M,,0000*56
$GPGSA,A,3,05,31,29,26,25,21,,,,,,,3.1,1.4,2.8*33
$GPRMC,152115.000,A,5023.6933,N,00921.9944,E,34.26,181.90,010518,,,A*53
$GPGGA,152116.000,5023.6838,N,00921.9942,E,1,06,1.4,347.8,M,48.0,M,,0000*56
$GPGSA,A,3,05,31,29,26,25,21,,,,,,,3.1,1.4,2.8*33
$GPRMC,152116.000,A,5023.6838,N,00921.9942,E,34.05,178.70,010518,,,A*55
$GPGGA,152117.000,5023.6744,N,00921.9946,E,1,06,1.4,347.8,M,48.0,M,,0000*57
$GPGSA,A,3,05,31,29,26,25,21,,,,,,,3.1,1.4,2.8*33
$GPRMC,152117.000,A,5023.6744,N,00921.9946,E,34.01,177.46,010518,,,A*5A
$GPGGA,152118.000,5023.6650,N,00921.9954,E,1,06,1.4,347.6,M,48.0,M,,0000*51
$GPGSA,A,3,05,31,29,26,25,21,,,,,,,3.1,1.4,2.8*33
$GPGSV,3,1,11,29,61,062,42,26,52,297,38,21,47,183,38,31,45,224,36*72
$GPGSV,3,2,11,25,33,125,41,16,23,300,28,05,18,058,25,20,07,145,29*7B
$GPGSV,3,3,11,23,05,314,24,02,02,039,,09,02,348,*43
$GPRMC,152118.000,A,5023.6650,N,00921.9954,E,34.11,176.32,010518,,,A*51
$GPGGA,152119.000,5023.6555,N,00921.9965,E,1,06,1.4,347.6,M,48.0,M,,0000*54
$GPGSA,A,3,05,31,29,26,25,21,,,,,,,3.1,1.4,2.8*33
$GPRMC,152119.000,A,5023.6555,N,00921.9965,E,34.29,174.89,010518,,,A*5D
$GPGGA,152120.000,5023.6461,N,00921.9977,E,1,06,1.4,347.4,M,48.0,M,,0000*59
$GPGSA,A,3,05,31,29,26,25,21,,,,,,,3.1,1.4,2.8*33
$GPRMC,152120.000,A,5023.6461,N,00921.9977,E,34.25,175.18,010518,,,A*57
$GPGGA,152121.000,5023.6367,N,00921.9993,E,1,06,1.4,347.1,M,48.0,M,,0000*56
$GPGSA,A,3,05,31,29,26,25,21,,,,,,,3.1,1.4,2.8*33
$GPRMC,152121.000,A,5023.6367,N,00921.9993,E,34.22,172.39,010518,,,A*5E
$GPGGA,152122.000,5023.6273,N,00922.0016,E,1,06,1.4,346.5,M,48.0,M,,0000*5A
$GPGSA,A,3,05,31,29,26,25,21,,,,,,,3.1,1.4,2.8*33
$GPRMC,152122.000,A,5023.6273,N,00922.0016,E,34.30,170.04,010518,,,A*58
$GPGGA,152123.000,5023.6179,N,00922.0047,E,1,06,1.4,346.0,M,48.0,M,,0000*53
$GPGSA,A,3,05,31,29,26,25,21,,,,,,,3.1,1.4,2.8*33
$GPGSV,3,1,11,29,61,062,42,26,52,297,33,21,47,183,38,31,45,224,28*76
$GPGSV,3,2,11,25,33,125,39,16,23,300,23,05,18,058,36,20,07,145,25*71
$GPGSV,3,3,11,23,05,314,20,02,02,039,,09,02,348,*47
$GPRMC,152123.000,A,5023.6179,N,00922.0047,E,34.67,166.43,010518,,,A*52
$GPGGA,152124.000,5023.6085,N,00922.0086,E,1,06,1.4,345.3,M,48.0,M,,0000*5B
$GPGSA,A,3,05,31,29,26,25,21,,,,,,,3.1,1.4,2.8*33
$GPRMC,152124.000,A,5023.6085,N,00922.0086,E,35.38,163.95,010518,,,A*5F
$GPGGA,152125.000,5023.5989,N,00922.0131,E,1,06,1.4,344.7,M,48.0,M,,0000*54
